{"type":"FeatureCollection","features":[{"type":"Feature","id":"SPIELPLATZPUNKTOGD.2362982","geometry":{"type":"Point","coordinates":[16.3038355,48.16175747]},"geometry_name":"SHAPE","properties":{"OBJECTID":2362982,"ANL_NAME":"PA Hervicusgasse","BEZIRK":12,"SPIELPLATZ_DETAIL":"Basketball, Fußball, Skaten","TYP_DETAIL":"Ballspielkäfig, Skaterpark","SE_ANNO_CAD_DATA":null}},{"type":"Feature","id":"SPIELPLATZPUNKTOGD.2362983","geometry":{"type":"Point","coordinates":[16.40606693,48.27482978]},"geometry_name":"SHAPE","properties":{"OBJECTID":2362983,"ANL_NAME":"PA Thomagasse","BEZIRK":21,"SPIELPLATZ_DETAIL":"Themenspiel Robinson - Steg","TYP_DETAIL":"Themenspielplatz","SE_ANNO_CAD_DATA":null}},{"type":"Feature","id":"SPIELPLATZPUNKTOGD.2362984","geometry":{"type":"Point","coordinates":[16.40551479,48.27418619]},"geometry_name":"SHAPE","properties":{"OBJECTID":2362984,"ANL_NAME":"PA Thomagasse","BEZIRK":21,"SPIELPLATZ_DETAIL":"Fußball, Hockey","TYP_DETAIL":"Ballspielplatz","SE_ANNO_CAD_DATA":null}},{"type":"Feature","id":"SPIELPLATZPUNKTOGD.2362985","geometry":{"type":"Point","coordinates":[16.39027623,48.23610907]},"geometry_name":"SHAPE","properties":{"OBJECTID":2362985,"ANL_NAME":"PA Traisengasse","BEZIRK":20,"SPIELPLATZ_DETAIL":"Fußball","TYP_DETAIL":"Ballspielplatz","SE_ANNO_CAD_DATA":null}},{"type":"Feature","id":"SPIELPLATZPUNKTOGD.2362986","geometry":{"type":"Point","coordinates":[16.34677298,48.18178556]},"geometry_name":"SHAPE","properties":{"OBJECTID":2362986,"ANL_NAME":"Haydnpark","BEZIRK":12,"SPIELPLATZ_DETAIL":"Fitness, Skaten, Streetball","TYP_DETAIL":"Ballspielplatz, Generationenspielplatz, Skaterpark","SE_ANNO_CAD_DATA":null}},{"type":"Feature","id":"SPIELPLATZPUNKTOGD.2362987","geometry":{"type":"Point","coordinates":[16.34563525,48.18173474]},"geometry_name":"SHAPE","properties":{"OBJECTID":2362987,"ANL_NAME":"Haydnpark","BEZIRK":12,"SPIELPLATZ_DETAIL":"Balancieren, Karussell, Klettern, Rutschen, Sandspielen, Schaukeln, Spielhaus, Wippen","TYP_DETAIL":"Spielplatz","SE_ANNO_CAD_DATA":null}},{"type":"Feature","id":"SPIELPLATZPUNKTOGD.2362988","geometry":{"type":"Point","coordinates":[16.35388428,48.14789883]},"geometry_name":"SHAPE","properties":{"OBJECTID":2362988,"ANL_NAME":"PA Neilreichgasse","BEZIRK":23,"SPIELPLATZ_DETAIL":"Basketball, Fußball","TYP_DETAIL":"Ballspielkäfig","SE_ANNO_CAD_DATA":null}},{"type":"Feature","id":"SPIELPLATZPUNKTOGD.2362989","geometry":{"type":"Point","coordinates":[16.41138397,48.2513534]},"geometry_name":"SHAPE","properties":{"OBJECTID":2362989,"ANL_NAME":"Freiligrathpark","BEZIRK":21,"SPIELPLATZ_DETAIL":"Balancieren, Basketball, Fußball, Karussell, Klettern, Reck, Rutschen, Sand-Matsch, Sandspielen, Schaukeln, Spielhaus, Tischtennis, Torwand, Wasserspiel","TYP_DETAIL":"Ballspielplatz, Kleinkinderspielplatz, Spielplatz","SE_ANNO_CAD_DATA":null}},{"type":"Feature","id":"SPIELPLATZPUNKTOGD.2362990","geometry":{"type":"Point","coordinates":[16.42083303,48.17946735]},"geometry_name":"SHAPE","properties":{"OBJECTID":2362990,"ANL_NAME":"PA Simoningplatz","BEZIRK":11,"SPIELPLATZ_DETAIL":"Sandspielen","TYP_DETAIL":"Kleinkinderspielplatz","SE_ANNO_CAD_DATA":null}},{"type":"Feature","id":"SPIELPLATZPUNKTOGD.2362991","geometry":{"type":"Point","coordinates":[16.30949346,48.21266527]},"geometry_name":"SHAPE","properties":{"OBJECTID":2362991,"ANL_NAME":"PA Stillfriedplatz","BEZIRK":16,"SPIELPLATZ_DETAIL":"Basketball, Drehen, Fitness, Fußball, Klettern, Sandspiel, Schaukeln, Spielhaus, Tischtennis, Wippen","TYP_DETAIL":"Ballspielkäfig, Ballspielplatz, Generationenspielplatz, Kleinkinderspielplatz","SE_ANNO_CAD_DATA":null}},{"type":"Feature","id":"SPIELPLATZPUNKTOGD.2362992","geometry":{"type":"Point","coordinates":[16.37699618,48.2371972]},"geometry_name":"SHAPE","properties":{"OBJECTID":2362992,"ANL_NAME":"PA Leithastraße","BEZIRK":20,"SPIELPLATZ_DETAIL":"Balancieren, Klettern, Rutschen, Sand-Matsch, Schaukeln, Spieltier, Wasserspiel, Wippen","TYP_DETAIL":"Kleinkinderspielplatz, Spielplatz","SE_ANNO_CAD_DATA":null}},{"type":"Feature","id":"SPIELPLATZPUNKTOGD.2362993","geometry":{"type":"Point","coordinates":[16.42464928,48.20124396]},"geometry_name":"SHAPE","properties":{"OBJECTID":2362993,"ANL_NAME":"Prater - Golfwiese","BEZIRK":2,"SPIELPLATZ_DETAIL":"Disc-Golf","TYP_DETAIL":"sonstiger Spielplatz","SE_ANNO_CAD_DATA":null}},{"type":"Feature","id":"SPIELPLATZPUNKTOGD.2362994","geometry":{"type":"Point","coordinates":[16.45019785,48.25515126]},"geometry_name":"SHAPE","properties":{"OBJECTID":2362994,"ANL_NAME":"PA Ferdinand-Stransky-Weg","BEZIRK":22,"SPIELPLATZ_DETAIL":"Fußball","TYP_DETAIL":"Ballspielplatz","SE_ANNO_CAD_DATA":null}},{"type":"Feature","id":"SPIELPLATZPUNKTOGD.2362995","geometry":{"type":"Point","coordinates":[16.32596697,48.21480384]},"geometry_name":"SHAPE","properties":{"OBJECTID":2362995,"ANL_NAME":"Lorenz-Bayer-Park","BEZIRK":17,"SPIELPLATZ_DETAIL":"Balancieren, Basketball, Fitness, Fußball, Karussell, Klettern, Rutschen, Sandspielen, Schaukeln, Tischtennis, Volleyball, Wippen","TYP_DETAIL":"Ballspielkäfig, Ballspielplatz, Generationenspielplatz, Kleinkinderspielplatz, Spielplatz","SE_ANNO_CAD_DATA":null}},{"type":"Feature","id":"SPIELPLATZPUNKTOGD.2362996","geometry":{"type":"Point","coordinates":[16.32708947,48.18987969]},"geometry_name":"SHAPE","properties":{"OBJECTID":2362996,"ANL_NAME":"Ernestine-Diwisch-Park","BEZIRK":15,"SPIELPLATZ_DETAIL":"Karussell, Klettern, Rutschen, Sandspielen, Spieltier, Volleyball, Wippen","TYP_DETAIL":"Ballspielplatz, Kleinkinderspielplatz, Spielplatz","SE_ANNO_CAD_DATA":null}},{"type":"Feature","id":"SPIELPLATZPUNKTOGD.2362997","geometry":{"type":"Point","coordinates":[16.40764285,48.23425304]},"geometry_name":"SHAPE","properties":{"OBJECTID":2362997,"ANL_NAME":"Linker Donaudamm Spielplatz 1","BEZIRK":22,"SPIELPLATZ_DETAIL":"Basketball, Fußball","TYP_DETAIL":"Ballspielkäfig","SE_ANNO_CAD_DATA":null}},{"type":"Feature","id":"SPIELPLATZPUNKTOGD.2362998","geometry":{"type":"Point","coordinates":[16.32485968,48.23425382]},"geometry_name":"SHAPE","properties":{"OBJECTID":2362998,"ANL_NAME":"Albert-Dub-Park","BEZIRK":18,"SPIELPLATZ_DETAIL":"Basketball, Fußball, Klettern, Rutschen, Sandspielen, Schaukeln, Wippen","TYP_DETAIL":"Ballspielkäfig, Kleinkinderspielplatz, Spielplatz","SE_ANNO_CAD_DATA":null}},{"type":"Feature","id":"SPIELPLATZPUNKTOGD.2362999","geometry":{"type":"Point","coordinates":[16.31365957,48.20028183]},"geometry_name":"SHAPE","properties":{"OBJECTID":2362999,"ANL_NAME":"H.-C.-Artmann-Park","BEZIRK":14,"SPIELPLATZ_DETAIL":"Balancieren, Basketball, Fußball, Klettern, Malen, Rutschen, Sandspielen, Schaukeln, Wippen","TYP_DETAIL":"Ballspielkäfig, Kleinkinderspielplatz, Spielplatz, sonstiger Spielplatz","SE_ANNO_CAD_DATA":null}},{"type":"Feature","id":"SPIELPLATZPUNKTOGD.2363000","geometry":{"type":"Point","coordinates":[16.34059196,48.19565571]},"geometry_name":"SHAPE","properties":{"OBJECTID":2363000,"ANL_NAME":"Christian-Broda-Platz","BEZIRK":6,"SPIELPLATZ_DETAIL":"Drehen, Spieltier, Wippen","TYP_DETAIL":"Kleinkinderspielplatz, Spielplatz","SE_ANNO_CAD_DATA":null}},{"type":"Feature","id":"SPIELPLATZPUNKTOGD.2363001","geometry":{"type":"Point","coordinates":[16.32605115,48.21285237]},"geometry_name":"SHAPE","properties":{"OBJECTID":2363001,"ANL_NAME":"Adele-Jellinek-Park","BEZIRK":16,"SPIELPLATZ_DETAIL":"Balancieren, Brettspiel, Tischtennis, Wasserspiel","TYP_DETAIL":"Ballspielplatz, Spielplatz, sonstiger Spielplatz","SE_ANNO_CAD_DATA":null}},{"type":"Feature","id":"SPIELPLATZPUNKTOGD.2363002","geometry":{"type":"Point","coordinates":[16.31231876,48.23105601]},"geometry_name":"SHAPE","properties":{"OBJECTID":2363002,"ANL_NAME":"Moriz-Mayer-Park","BEZIRK":17,"SPIELPLATZ_DETAIL":"Wippen","TYP_DETAIL":"Kleinkinderspielplatz","SE_ANNO_CAD_DATA":null}},{"type":"Feature","id":"SPIELPLATZPUNKTOGD.2363003","geometry":{"type":"Point","coordinates":[16.43439877,48.28774356]},"geometry_name":"SHAPE","properties":{"OBJECTID":2363003,"ANL_NAME":"PA Grellgasse","BEZIRK":21,"SPIELPLATZ_DETAIL":"Fitness","TYP_DETAIL":"Generationenspielplatz","SE_ANNO_CAD_DATA":null}},{"type":"Feature","id":"SPIELPLATZPUNKTOGD.2363004","geometry":{"type":"Point","coordinates":[16.41109938,48.16908277]},"geometry_name":"SHAPE","properties":{"OBJECTID":2363004,"ANL_NAME":"PA Ludwig-Kralik-Weg","BEZIRK":11,"SPIELPLATZ_DETAIL":"Fußball, Volleyball","TYP_DETAIL":"Ballspielkäfig","SE_ANNO_CAD_DATA":null}},{"type":"Feature","id":"SPIELPLATZPUNKTOGD.2363005","geometry":{"type":"Point","coordinates":[16.36908582,48.2215698]},"geometry_name":"SHAPE","properties":{"OBJECTID":2363005,"ANL_NAME":"Wettsteinpark","BEZIRK":2,"SPIELPLATZ_DETAIL":"Klettern, Rutschen, Sandspielen, Schaukeln, Spieltier","TYP_DETAIL":"Kleinkinderspielplatz","SE_ANNO_CAD_DATA":null}},{"type":"Feature","id":"SPIELPLATZPUNKTOGD.2363006","geometry":{"type":"Point","coordinates":[16.38946454,48.29529639]},"geometry_name":"SHAPE","properties":{"OBJECTID":2363006,"ANL_NAME":"Helma-Pavlis-Park","BEZIRK":21,"SPIELPLATZ_DETAIL":"Drehen, Karussell, Klettern, Rutschen, Schaukeln, Wippen","TYP_DETAIL":"Spielplatz","SE_ANNO_CAD_DATA":null}},{"type":"Feature","id":"SPIELPLATZPUNKTOGD.2363007","geometry":{"type":"Point","coordinates":[16.3783249,48.17928757]},"geometry_name":"SHAPE","properties":{"OBJECTID":2363007,"ANL_NAME":"Humboldtpark","BEZIRK":10,"SPIELPLATZ_DETAIL":"Drehen, Fußball, Klettern, Rutschen, Sandspielen, Schaukeln, Spielhaus, Streetball, Tischtennis, Trampolin, Volleyball, Wippen","TYP_DETAIL":"Ballspielkäfig, Ballspielplatz, Spielplatz, sonstiger Spielplatz","SE_ANNO_CAD_DATA":null}},{"type":"Feature","id":"SPIELPLATZPUNKTOGD.2363008","geometry":{"type":"Point","coordinates":[16.3312485,48.17357039]},"geometry_name":"SHAPE","properties":{"OBJECTID":2363008,"ANL_NAME":"Franz-Nekula-Park","BEZIRK":12,"SPIELPLATZ_DETAIL":"Calisthenics, Karussell, Klettern, Rutschen, Sandspielen, Schaukeln, Spielhaus, Wippen","TYP_DETAIL":"Generationenspielplatz, Spielplatz","SE_ANNO_CAD_DATA":null}},{"type":"Feature","id":"SPIELPLATZPUNKTOGD.2363009","geometry":{"type":"Point","coordinates":[16.38494685,48.1665592]},"geometry_name":"SHAPE","properties":{"OBJECTID":2363009,"ANL_NAME":"Alfred-Böhm-Park","BEZIRK":10,"SPIELPLATZ_DETAIL":"Basketball, Calisthenics, Fußball, Klettern, Rutschen, Sand-Matsch, Schaukeln, Skaten, Spielhaus, Tischtennis, Trampolin, Volleyball","TYP_DETAIL":"Ballspielkäfig, Ballspielplatz, Generationenspielplatz, Skaterpark, Spielplatz","SE_ANNO_CAD_DATA":null}},{"type":"Feature","id":"SPIELPLATZPUNKTOGD.2363010","geometry":{"type":"Point","coordinates":[16.45626102,48.25563781]},"geometry_name":"SHAPE","properties":{"OBJECTID":2363010,"ANL_NAME":"PA Aktivspielplatz","BEZIRK":22,"SPIELPLATZ_DETAIL":"Basketball, Fußball","TYP_DETAIL":"Ballspielplatz","SE_ANNO_CAD_DATA":null}},{"type":"Feature","id":"SPIELPLATZPUNKTOGD.2362981","geometry":{"type":"Point","coordinates":[16.37190332,48.21664832]},"geometry_name":"SHAPE","properties":{"OBJECTID":2362981,"ANL_NAME":"Jonny-Moser-Park","BEZIRK":1,"SPIELPLATZ_DETAIL":"Basketball, Fußball, Volleyball","TYP_DETAIL":"Ballspielkäfig","SE_ANNO_CAD_DATA":null}},{"type":"Feature","id":"SPIELPLATZPUNKTOGD.2363016","geometry":{"type":"Point","coordinates":[16.36370484,48.19637185]},"geometry_name":"SHAPE","properties":{"OBJECTID":2363016,"ANL_NAME":"Planquadrat Park","BEZIRK":4,"SPIELPLATZ_DETAIL":"BMX, Balancieren, Karussell, Klettern, Reck, Rutschen, Sandspielen, Schaukeln, Spielhaus, Tischtennis, Wippen","TYP_DETAIL":"Ballspielplatz, Kleinkinderspielplatz, Spielplatz, sonstiger Spielplatz","SE_ANNO_CAD_DATA":null}},{"type":"Feature","id":"SPIELPLATZPUNKTOGD.2363017","geometry":{"type":"Point","coordinates":[16.28986116,48.15438001]},"geometry_name":"SHAPE","properties":{"OBJECTID":2363017,"ANL_NAME":"PA Tullnertalgasse","BEZIRK":23,"SPIELPLATZ_DETAIL":"Basketball, Fußball, Karussell, Klettern, Rutschen, Sandspielen, Schaukeln, Trampolin, Wippen","TYP_DETAIL":"Ballspielkäfig, Kleinkinderspielplatz, Spielplatz","SE_ANNO_CAD_DATA":null}},{"type":"Feature","id":"SPIELPLATZPUNKTOGD.2363018","geometry":{"type":"Point","coordinates":[16.43812574,48.26974515]},"geometry_name":"SHAPE","properties":{"OBJECTID":2363018,"ANL_NAME":"PA Dominik-Wölfel-Gasse","BEZIRK":21,"SPIELPLATZ_DETAIL":"Fußball, Klettern, Rutschen, Sandspielen, Schaukeln, Wasserspiel, Wippen","TYP_DETAIL":"Ballspielplatz, Spielplatz","SE_ANNO_CAD_DATA":null}},{"type":"Feature","id":"SPIELPLATZPUNKTOGD.2363019","geometry":{"type":"Point","coordinates":[16.42163457,48.25446516]},"geometry_name":"SHAPE","properties":{"OBJECTID":2363019,"ANL_NAME":"PA Carminweg","BEZIRK":21,"SPIELPLATZ_DETAIL":"Fitness, Hängematte, Trampolin, Volleyball","TYP_DETAIL":"Ballspielplatz, Generationenspielplatz, Spielplatz","SE_ANNO_CAD_DATA":null}},{"type":"Feature","id":"SPIELPLATZPUNKTOGD.2363020","geometry":{"type":"Point","coordinates":[16.30056373,48.23943102]},"geometry_name":"SHAPE","properties":{"OBJECTID":2363020,"ANL_NAME":"PA Ladenburghöhe","BEZIRK":18,"SPIELPLATZ_DETAIL":"Klettern, Rutschen, Sandspielen, Schaukeln, Wippen","TYP_DETAIL":"Spielplatz","SE_ANNO_CAD_DATA":null}},{"type":"Feature","id":"SPIELPLATZPUNKTOGD.2363021","geometry":{"type":"Point","coordinates":[16.30363632,48.1496658]},"geometry_name":"SHAPE","properties":{"OBJECTID":2363021,"ANL_NAME":"PA Josef-Österreicher-Gasse","BEZIRK":23,"SPIELPLATZ_DETAIL":"Basketball, Fußball, Klettern, Rutschen, Sandspielen, Schaukeln","TYP_DETAIL":"Ballspielkäfig, Kleinkinderspielplatz","SE_ANNO_CAD_DATA":null}},{"type":"Feature","id":"SPIELPLATZPUNKTOGD.2363022","geometry":{"type":"Point","coordinates":[16.46936828,48.15441611]},"geometry_name":"SHAPE","properties":{"OBJECTID":2363022,"ANL_NAME":"PA Flammweg","BEZIRK":11,"SPIELPLATZ_DETAIL":"Drehen, Karussell, Klettern, Rutschen, Schaukeln, Wippen","TYP_DETAIL":"Spielplatz","SE_ANNO_CAD_DATA":null}},{"type":"Feature","id":"SPIELPLATZPUNKTOGD.2363023","geometry":{"type":"Point","coordinates":[16.31339773,48.13063087]},"geometry_name":"SHAPE","properties":{"OBJECTID":2363023,"ANL_NAME":"PA Siedlung Wienerflur","BEZIRK":23,"SPIELPLATZ_DETAIL":"Basketball, Fitness, Fußball, Karussell, Klettern, Rutschen, Sandspielen, Schaukeln, Seilbahn, Wippen","TYP_DETAIL":"Ballspielkäfig, Generationenspielplatz, Kleinkinderspielplatz, Spielplatz","SE_ANNO_CAD_DATA":null}},{"type":"Feature","id":"SPIELPLATZPUNKTOGD.2363024","geometry":{"type":"Point","coordinates":[16.34734858,48.18707864]},"geometry_name":"SHAPE","properties":{"OBJECTID":2363024,"ANL_NAME":"PA Am Hundsturm","BEZIRK":5,"SPIELPLATZ_DETAIL":"Drehen, Hüpfen, Klettern, Reck, Rutschen, Sandspielen, Schauckeln, Schaukeln, Streetball","TYP_DETAIL":"Ballspielplatz, Kleinkinderspielplatz, Spielplatz","SE_ANNO_CAD_DATA":null}},{"type":"Feature","id":"SPIELPLATZPUNKTOGD.2363025","geometry":{"type":"Point","coordinates":[16.38895615,48.26048239]},"geometry_name":"SHAPE","properties":{"OBJECTID":2363025,"ANL_NAME":"Grete-und-Otto-Ascher-Park","BEZIRK":21,"SPIELPLATZ_DETAIL":"Hüpfspiel, Schach, Streicheltier","TYP_DETAIL":"Spielplatz","SE_ANNO_CAD_DATA":null}},{"type":"Feature","id":"SPIELPLATZPUNKTOGD.2363026","geometry":{"type":"Point","coordinates":[16.3629372,48.18471763]},"geometry_name":"SHAPE","properties":{"OBJECTID":2363026,"ANL_NAME":"Klieberpark","BEZIRK":5,"SPIELPLATZ_DETAIL":"Balancieren, Fußball, Karussell, Klettern, Schaukeln, Slackline, Tischtennis, Wippen","TYP_DETAIL":"Ballspielkäfig, Ballspielplatz, Kleinkinderspielplatz, Spielplatz, sonstiger Spielplatz","SE_ANNO_CAD_DATA":null}},{"type":"Feature","id":"SPIELPLATZPUNKTOGD.2363027","geometry":{"type":"Point","coordinates":[16.46053722,48.15374305]},"geometry_name":"SHAPE","properties":{"OBJECTID":2363027,"ANL_NAME":"PA Am Leberberg","BEZIRK":11,"SPIELPLATZ_DETAIL":"Basketball, Beachvolleyball, Fitness, Klettern, Rutschen, Sandspielen, Schaukeln, Skaten, Trampolin, Wasserspiel, Wippen","TYP_DETAIL":"Ballspielplatz, Generationenspielplatz, Kleinkinderspielplatz, Skaterpark, Spielplatz, Wasserspielplatz","SE_ANNO_CAD_DATA":null}},{"type":"Feature","id":"SPIELPLATZPUNKTOGD.2363028","geometry":{"type":"Point","coordinates":[16.46196092,48.15334414]},"geometry_name":"SHAPE","properties":{"OBJECTID":2363028,"ANL_NAME":"PA Am Leberberg","BEZIRK":11,"SPIELPLATZ_DETAIL":"Rutschen, Sandspielen, Schaukeln, Tischtennis","TYP_DETAIL":"Ballspielplatz, Kleinkinderspielplatz","SE_ANNO_CAD_DATA":null}},{"type":"Feature","id":"SPIELPLATZPUNKTOGD.2363029","geometry":{"type":"Point","coordinates":[16.30081988,48.14756987]},"geometry_name":"SHAPE","properties":{"OBJECTID":2363029,"ANL_NAME":"PA Riegermühle","BEZIRK":23,"SPIELPLATZ_DETAIL":"Fußball, Hängematte, Karussell, Klettern, Schaukeln","TYP_DETAIL":"Ballspielplatz, Spielplatz","SE_ANNO_CAD_DATA":null}},{"type":"Feature","id":"SPIELPLATZPUNKTOGD.2363030","geometry":{"type":"Point","coordinates":[16.33630409,48.19321833]},"geometry_name":"SHAPE","properties":{"OBJECTID":2363030,"ANL_NAME":"PA Haidmannsgasse","BEZIRK":15,"SPIELPLATZ_DETAIL":"Hängematte, Klettern, Rutschen, Sandspielen, Schaukeln","TYP_DETAIL":"Spielplatz","SE_ANNO_CAD_DATA":null}},{"type":"Feature","id":"SPIELPLATZPUNKTOGD.2363031","geometry":{"type":"Point","coordinates":[16.43356358,48.25216158]},"geometry_name":"SHAPE","properties":{"OBJECTID":2363031,"ANL_NAME":"PA Rudolf-Köppl-Gasse","BEZIRK":22,"SPIELPLATZ_DETAIL":"Rutschen, Sandspielen, Schaukeln, Wippe","TYP_DETAIL":"Spielplatz","SE_ANNO_CAD_DATA":null}},{"type":"Feature","id":"SPIELPLATZPUNKTOGD.2363032","geometry":{"type":"Point","coordinates":[16.41092336,48.18132985]},"geometry_name":"SHAPE","properties":{"OBJECTID":2363032,"ANL_NAME":"Hyblerpark","BEZIRK":11,"SPIELPLATZ_DETAIL":"Bodenspiel, Drehen, Karussell, Klettern, Rutschen, Sandspielen, Schaukeln, Wippen","TYP_DETAIL":"Kleinkinderspielplatz, Spielplatz","SE_ANNO_CAD_DATA":null}},{"type":"Feature","id":"SPIELPLATZPUNKTOGD.2363033","geometry":{"type":"Point","coordinates":[16.41269172,48.18205816]},"geometry_name":"SHAPE","properties":{"OBJECTID":2363033,"ANL_NAME":"Hyblerpark","BEZIRK":11,"SPIELPLATZ_DETAIL":"Basketball, Beachvolleyball, Fitness, Fußball","TYP_DETAIL":"Ballspielplatz, Generationenspielplatz","SE_ANNO_CAD_DATA":null}},{"type":"Feature","id":"SPIELPLATZPUNKTOGD.2363034","geometry":{"type":"Point","coordinates":[16.35638365,48.19368802]},"geometry_name":"SHAPE","properties":{"OBJECTID":2363034,"ANL_NAME":"Willi-Frank-Park","BEZIRK":5,"SPIELPLATZ_DETAIL":", Balancieren, Fußball, Klettern, Rutschen, Sandspielen, Schaukeln, Streetball, Tischtennis, Wasserspiel, Wippen","TYP_DETAIL":"Ballspielplatz, Kleinkinderspielplatz, Spielplatz","SE_ANNO_CAD_DATA":null}},{"type":"Feature","id":"SPIELPLATZPUNKTOGD.2363035","geometry":{"type":"Point","coordinates":[16.35811892,48.24720837]},"geometry_name":"SHAPE","properties":{"OBJECTID":2363035,"ANL_NAME":"PA Klabundgasse","BEZIRK":19,"SPIELPLATZ_DETAIL":"Hängematte, Klettern, Rutschen, Sandspielen, Schaukeln, Spielhaus","TYP_DETAIL":"Spielplatz","SE_ANNO_CAD_DATA":null}},{"type":"Feature","id":"SPIELPLATZPUNKTOGD.2363036","geometry":{"type":"Point","coordinates":[16.35760141,48.23016327]},"geometry_name":"SHAPE","properties":{"OBJECTID":2363036,"ANL_NAME":"PA Augasse","BEZIRK":9,"SPIELPLATZ_DETAIL":"Rutschen, Sandspielen, Schaukeln, Spielhaus, Wippen","TYP_DETAIL":"Kleinkinderspielplatz","SE_ANNO_CAD_DATA":null}},{"type":"Feature","id":"SPIELPLATZPUNKTOGD.2363037","geometry":{"type":"Point","coordinates":[16.45600816,48.277139]},"geometry_name":"SHAPE","properties":{"OBJECTID":2363037,"ANL_NAME":"PA Ernst-Kein-Gasse","BEZIRK":21,"SPIELPLATZ_DETAIL":"Fußball","TYP_DETAIL":"Ballspielplatz","SE_ANNO_CAD_DATA":null}},{"type":"Feature","id":"SPIELPLATZPUNKTOGD.2363038","geometry":{"type":"Point","coordinates":[16.45575385,48.27633198]},"geometry_name":"SHAPE","properties":{"OBJECTID":2363038,"ANL_NAME":"PA Ernst-Kein-Gasse","BEZIRK":21,"SPIELPLATZ_DETAIL":"Fußball","TYP_DETAIL":"Ballspielplatz","SE_ANNO_CAD_DATA":null}},{"type":"Feature","id":"SPIELPLATZPUNKTOGD.2363011","geometry":{"type":"Point","coordinates":[16.36145984,48.19862085]},"geometry_name":"SHAPE","properties":{"OBJECTID":2363011,"ANL_NAME":"Alfred-Grünwald-Park","BEZIRK":6,"SPIELPLATZ_DETAIL":", Fitness, Fußball, Klettern, Rodelhügel, Rutschen, Sandspielen, Schauckeln, Seilbahn, Streetball, Wasserspielmöglichkeit, Wippen","TYP_DETAIL":"Ballspielplatz, Kleinkinderspielplatz, Spielplatz, sonstiger Spielplatz","SE_ANNO_CAD_DATA":null}},{"type":"Feature","id":"SPIELPLATZPUNKTOGD.2363012","geometry":{"type":"Point","coordinates":[16.26838684,48.19622664]},"geometry_name":"SHAPE","properties":{"OBJECTID":2363012,"ANL_NAME":"PA Cossmanngasse","BEZIRK":14,"SPIELPLATZ_DETAIL":"Basketball, Fußball, Rutschen, Sandspielen, Schaukeln, Skaten, Wippen","TYP_DETAIL":"Ballspielkäfig, Kleinkinderspielplatz, Skaterpark","SE_ANNO_CAD_DATA":null}},{"type":"Feature","id":"SPIELPLATZPUNKTOGD.2363013","geometry":{"type":"Point","coordinates":[16.39019444,48.14257892]},"geometry_name":"SHAPE","properties":{"OBJECTID":2363013,"ANL_NAME":"PA Kurt-Tichy-Gasse","BEZIRK":10,"SPIELPLATZ_DETAIL":"Drehen, Karussell, Klettern, Rutschen, Schaukeln","TYP_DETAIL":"Spielplatz","SE_ANNO_CAD_DATA":null}},{"type":"Feature","id":"SPIELPLATZPUNKTOGD.2363014","geometry":{"type":"Point","coordinates":[16.30268244,48.1952758]},"geometry_name":"SHAPE","properties":{"OBJECTID":2363014,"ANL_NAME":"Spielplatz","BEZIRK":14,"SPIELPLATZ_DETAIL":"Fitness","TYP_DETAIL":"Generationenspielplatz","SE_ANNO_CAD_DATA":null}},{"type":"Feature","id":"SPIELPLATZPUNKTOGD.2363015","geometry":{"type":"Point","coordinates":[16.24962151,48.21788585]},"geometry_name":"SHAPE","properties":{"OBJECTID":2363015,"ANL_NAME":"Ulmenpark","BEZIRK":14,"SPIELPLATZ_DETAIL":"Balancieren, Hängematte, Klettern, Rutschen, Sandspielen, Schaukeln, Wippen","TYP_DETAIL":"Spielplatz","SE_ANNO_CAD_DATA":null}},{"type":"Feature","id":"SPIELPLATZPUNKTOGD.2363067","geometry":{"type":"Point","coordinates":[16.35372641,48.22086482]},"geometry_name":"SHAPE","properties":{"OBJECTID":2363067,"ANL_NAME":"Arne-Karlsson-Park","BEZIRK":9,"SPIELPLATZ_DETAIL":"Basketball, Fußball, Klettern, Rodelhügel, Rutschen, Sandspielen, Schaukeln, Skaten, Spielhaus, Tischtennis, Wippen","TYP_DETAIL":"Ballspielkäfig, Ballspielplatz, Skaterpark, Spielplatz, sonstiger Spielplatz","SE_ANNO_CAD_DATA":null}},{"type":"Feature","id":"SPIELPLATZPUNKTOGD.2363068","geometry":{"type":"Point","coordinates":[16.30211188,48.2350893]},"geometry_name":"SHAPE","properties":{"OBJECTID":2363068,"ANL_NAME":"Hans-Bock-Park","BEZIRK":17,"SPIELPLATZ_DETAIL":"Tischtennis","TYP_DETAIL":"Ballspielplatz","SE_ANNO_CAD_DATA":null}},{"type":"Feature","id":"SPIELPLATZPUNKTOGD.2363069","geometry":{"type":"Point","coordinates":[16.41357565,48.22511732]},"geometry_name":"SHAPE","properties":{"OBJECTID":2363069,"ANL_NAME":"Wasserspielplatz Donauinsel","BEZIRK":22,"SPIELPLATZ_DETAIL":"Sand-Matsch, Wasserspiel","TYP_DETAIL":"Wasserspielplatz","SE_ANNO_CAD_DATA":null}},{"type":"Feature","id":"SPIELPLATZPUNKTOGD.2363070","geometry":{"type":"Point","coordinates":[16.36771468,48.19315126]},"geometry_name":"SHAPE","properties":{"OBJECTID":2363070,"ANL_NAME":"Ernst-Jandl-Park","BEZIRK":4,"SPIELPLATZ_DETAIL":"Klettern, Rutschen, Sandspielen, Schaukeln","TYP_DETAIL":"Spielplatz","SE_ANNO_CAD_DATA":null}},{"type":"Feature","id":"SPIELPLATZPUNKTOGD.2363071","geometry":{"type":"Point","coordinates":[16.42487313,48.2259681]},"geometry_name":"SHAPE","properties":{"OBJECTID":2363071,"ANL_NAME":"PA Schüttauplatz","BEZIRK":22,"SPIELPLATZ_DETAIL":"Karusell, Klettern, Rutschen, Sand-Match, Schaukeln, Spieltier, Wasserspiel, Wippen","TYP_DETAIL":"Kleinkinderspielplatz, Spielplatz","SE_ANNO_CAD_DATA":null}},{"type":"Feature","id":"SPIELPLATZPUNKTOGD.2363072","geometry":{"type":"Point","coordinates":[16.39328914,48.20184186]},"geometry_name":"SHAPE","properties":{"OBJECTID":2363072,"ANL_NAME":"Rochuspark","BEZIRK":3,"SPIELPLATZ_DETAIL":", Fitness, Klangspiel, Klettern, Rutschen, Sandspielen, Schaukeln, Spieltisch, Tischtennis, Wippen","TYP_DETAIL":"Ballspielplatz, Generationenspielplatz, Kleinkinderspielplatz, Spielplatz, sonstiger Spielplatz","SE_ANNO_CAD_DATA":null}},{"type":"Feature","id":"SPIELPLATZPUNKTOGD.2363073","geometry":{"type":"Point","coordinates":[16.40277022,48.25102079]},"geometry_name":"SHAPE","properties":{"OBJECTID":2363073,"ANL_NAME":"PA An der oberen Alten Donau","BEZIRK":21,"SPIELPLATZ_DETAIL":"Klettern, Rutschen, Sandspielen, Schaukeln, Wasserspiel, Wippen","TYP_DETAIL":"Spielplatz","SE_ANNO_CAD_DATA":null}},{"type":"Feature","id":"SPIELPLATZPUNKTOGD.2363074","geometry":{"type":"Point","coordinates":[16.48439732,48.22132918]},"geometry_name":"SHAPE","properties":{"OBJECTID":2363074,"ANL_NAME":"PA Pilotengasse","BEZIRK":22,"SPIELPLATZ_DETAIL":"Balancieren, Fußball, Klettern, Schaukeln, Themenspiel Piloten, Volleyball, Wasserspiel, Wippen","TYP_DETAIL":"Ballspielplatz, Spielplatz, Themenspielplatz","SE_ANNO_CAD_DATA":null}},{"type":"Feature","id":"SPIELPLATZPUNKTOGD.2363075","geometry":{"type":"Point","coordinates":[16.3391797,48.22683865]},"geometry_name":"SHAPE","properties":{"OBJECTID":2363075,"ANL_NAME":"Schubertpark","BEZIRK":18,"SPIELPLATZ_DETAIL":", Basketball, Drehen, Fußball, Klettern, Rutschen, Sandspielen, Schaukeln, Spieltier, Streetball, Tischtennis, Volleyball, Wippen","TYP_DETAIL":"Ballspielkäfig, Ballspielplatz, Kleinkinderspielplatz, Spielplatz","SE_ANNO_CAD_DATA":null}},{"type":"Feature","id":"SPIELPLATZPUNKTOGD.2363076","geometry":{"type":"Point","coordinates":[16.3387125,48.2257616]},"geometry_name":"SHAPE","properties":{"OBJECTID":2363076,"ANL_NAME":"Schubertpark","BEZIRK":18,"SPIELPLATZ_DETAIL":"Balancieren","TYP_DETAIL":"Spielplatz","SE_ANNO_CAD_DATA":null}},{"type":"Feature","id":"SPIELPLATZPUNKTOGD.2363077","geometry":{"type":"Point","coordinates":[16.31985554,48.20356869]},"geometry_name":"SHAPE","properties":{"OBJECTID":2363077,"ANL_NAME":"GA Auf der Schmelz","BEZIRK":15,"SPIELPLATZ_DETAIL":"Drehen, Klettern, Reck, Rutschen, Sandspielen, Schaukeln, Tischtennis, Wippen","TYP_DETAIL":"Ballspielplatz, Spielplatz","SE_ANNO_CAD_DATA":null}},{"type":"Feature","id":"SPIELPLATZPUNKTOGD.2363078","geometry":{"type":"Point","coordinates":[16.34643084,48.20464284]},"geometry_name":"SHAPE","properties":{"OBJECTID":2363078,"ANL_NAME":"Karl-Farkas-Park","BEZIRK":7,"SPIELPLATZ_DETAIL":"Balancieren, Fußball, Karusell, Klettern, Rutschen, Sandspielen, Streetball, Tischtennis, Volleyball, Wippen","TYP_DETAIL":"Ballspielkäfig, Ballspielplatz, Kleinkinderspielplatz, Spielplatz","SE_ANNO_CAD_DATA":null}},{"type":"Feature","id":"SPIELPLATZPUNKTOGD.2363079","geometry":{"type":"Point","coordinates":[16.33725661,48.18687694]},"geometry_name":"SHAPE","properties":{"OBJECTID":2363079,"ANL_NAME":"Linsepark","BEZIRK":12,"SPIELPLATZ_DETAIL":"Basketball, Calisthenics, Skaten, Streetball, Volleyball","TYP_DETAIL":"Ballspielplatz, Generationenspielplatz, Skaterpark","SE_ANNO_CAD_DATA":null}},{"type":"Feature","id":"SPIELPLATZPUNKTOGD.2363080","geometry":{"type":"Point","coordinates":[16.39235753,48.23285596]},"geometry_name":"SHAPE","properties":{"OBJECTID":2363080,"ANL_NAME":"Therese-Ammon-Park","BEZIRK":2,"SPIELPLATZ_DETAIL":"Fußball, Karussell, Klettern, Rutschen, Sand-Matsch, Sandspielen, Schaukeln, Wasserspiel, Wippen","TYP_DETAIL":"Ballspielplatz, Kleinkinderspielplatz, Spielplatz","SE_ANNO_CAD_DATA":null}},{"type":"Feature","id":"SPIELPLATZPUNKTOGD.2363081","geometry":{"type":"Point","coordinates":[16.36523827,48.19156884]},"geometry_name":"SHAPE","properties":{"OBJECTID":2363081,"ANL_NAME":"Rubenspark","BEZIRK":4,"SPIELPLATZ_DETAIL":"Basketball, Klettern, Rutschen, Sandspielen, Schaukeln, Tischtennis, Wippen","TYP_DETAIL":"Ballspielkäfig, Ballspielplatz, Kleinkinderspielplatz, Spielplatz","SE_ANNO_CAD_DATA":null}},{"type":"Feature","id":"SPIELPLATZPUNKTOGD.2363082","geometry":{"type":"Point","coordinates":[16.4504097,48.25136211]},"geometry_name":"SHAPE","properties":{"OBJECTID":2363082,"ANL_NAME":"Ernst-Paul-Zimper-Park","BEZIRK":null,"SPIELPLATZ_DETAIL":"Balancieren, Fitness, Klettern, Schaukeln, Wasserspiel","TYP_DETAIL":"Generationenspielplatz, Spielplatz","SE_ANNO_CAD_DATA":null}},{"type":"Feature","id":"SPIELPLATZPUNKTOGD.2363083","geometry":{"type":"Point","coordinates":[16.35086152,48.18278241]},"geometry_name":"SHAPE","properties":{"OBJECTID":2363083,"ANL_NAME":"Ernst-Lichtblau-Park","BEZIRK":5,"SPIELPLATZ_DETAIL":"Basketball, Fußball, Klettern, Rutschen, Sandspielen, Schaukeln, Tischtennis, Wippen","TYP_DETAIL":"Ballspielkäfig, Ballspielplatz, Kleinkinderspielplatz, Spielplatz","SE_ANNO_CAD_DATA":null}},{"type":"Feature","id":"SPIELPLATZPUNKTOGD.2363084","geometry":{"type":"Point","coordinates":[16.34568233,48.20058239]},"geometry_name":"SHAPE","properties":{"OBJECTID":2363084,"ANL_NAME":"Dorothea-Neff-Park","BEZIRK":7,"SPIELPLATZ_DETAIL":"Rutschen, Sandspielen, Schaukeln, Wippen","TYP_DETAIL":"Kleinkinderspielplatz","SE_ANNO_CAD_DATA":null}},{"type":"Feature","id":"SPIELPLATZPUNKTOGD.2363085","geometry":{"type":"Point","coordinates":[16.32354915,48.18180641]},"geometry_name":"SHAPE","properties":{"OBJECTID":2363085,"ANL_NAME":"PA Rosasgasse","BEZIRK":12,"SPIELPLATZ_DETAIL":"Balancieren, Slackline","TYP_DETAIL":"Spielplatz, sonstiger Spielplatz","SE_ANNO_CAD_DATA":null}},{"type":"Feature","id":"SPIELPLATZPUNKTOGD.2363086","geometry":{"type":"Point","coordinates":[16.36951798,48.19946828]},"geometry_name":"SHAPE","properties":{"OBJECTID":2363086,"ANL_NAME":"Resselpark","BEZIRK":4,"SPIELPLATZ_DETAIL":"Skaten","TYP_DETAIL":"Skaterpark","SE_ANNO_CAD_DATA":null}},{"type":"Feature","id":"SPIELPLATZPUNKTOGD.2363087","geometry":{"type":"Point","coordinates":[16.37059962,48.19919196]},"geometry_name":"SHAPE","properties":{"OBJECTID":2363087,"ANL_NAME":"Resselpark","BEZIRK":4,"SPIELPLATZ_DETAIL":"Balancieren, Basketball, Drehen, Fußball, Reck, Rutschen, Sandspielen, Schaukeln, Wippen","TYP_DETAIL":"Ballspielplatz, Spielplatz","SE_ANNO_CAD_DATA":null}},{"type":"Feature","id":"SPIELPLATZPUNKTOGD.2363088","geometry":{"type":"Point","coordinates":[16.37169726,48.19945869]},"geometry_name":"SHAPE","properties":{"OBJECTID":2363088,"ANL_NAME":"Resselpark","BEZIRK":4,"SPIELPLATZ_DETAIL":", Rutschen, Sandspielen, Schaukeln, Wippen","TYP_DETAIL":"Kleinkinderspielplatz, Spielplatz","SE_ANNO_CAD_DATA":null}},{"type":"Feature","id":"SPIELPLATZPUNKTOGD.2363089","geometry":{"type":"Point","coordinates":[16.35249717,48.22953075]},"geometry_name":"SHAPE","properties":{"OBJECTID":2363089,"ANL_NAME":"Helene-Deutsch-Park","BEZIRK":9,"SPIELPLATZ_DETAIL":"Balancieren, Basketball, Drehen, Fußball, Klettern, Rutschen, Sand-Matsch, Schaukeln, Volleyball, Wasserspiel","TYP_DETAIL":"Ballspielkäfig, Spielplatz","SE_ANNO_CAD_DATA":null}},{"type":"Feature","id":"SPIELPLATZPUNKTOGD.2363090","geometry":{"type":"Point","coordinates":[16.40664733,48.24710227]},"geometry_name":"SHAPE","properties":{"OBJECTID":2363090,"ANL_NAME":"PA Dragonerhäufel","BEZIRK":21,"SPIELPLATZ_DETAIL":"Basketball, Beachvolleyball, Tischtennis","TYP_DETAIL":"Ballspielplatz","SE_ANNO_CAD_DATA":null}},{"type":"Feature","id":"SPIELPLATZPUNKTOGD.2363091","geometry":{"type":"Point","coordinates":[16.37077729,48.18238745]},"geometry_name":"SHAPE","properties":{"OBJECTID":2363091,"ANL_NAME":"Walter-Kuhn-Park","BEZIRK":10,"SPIELPLATZ_DETAIL":"Basketball, Calisthenics, Fussball, Tischtennis, Volleyball","TYP_DETAIL":"Ballspielkäfig, Ballspielplatz, Generationenspielplatz","SE_ANNO_CAD_DATA":null}},{"type":"Feature","id":"SPIELPLATZPUNKTOGD.2363092","geometry":{"type":"Point","coordinates":[16.37221906,48.18280563]},"geometry_name":"SHAPE","properties":{"OBJECTID":2363092,"ANL_NAME":"Walter-Kuhn-Park","BEZIRK":10,"SPIELPLATZ_DETAIL":", Fitness, Karussell, Klettern, Rutschen, Schaukeln, Spielhaus, Spieltier, Tischtennis, Wasserspiel, Wippen","TYP_DETAIL":"Ballspielplatz, Generationenspielplatz, Spielplatz","SE_ANNO_CAD_DATA":null}},{"type":"Feature","id":"SPIELPLATZPUNKTOGD.2363093","geometry":{"type":"Point","coordinates":[16.33061322,48.24572073]},"geometry_name":"SHAPE","properties":{"OBJECTID":2363093,"ANL_NAME":"PA Börnergasse","BEZIRK":19,"SPIELPLATZ_DETAIL":"Basketball, Klettern, Rutschen, Sandspielen, Seilbahn, Wippen","TYP_DETAIL":"Ballspielkäfig, Kleinkinderspielplatz, Spielplatz","SE_ANNO_CAD_DATA":null}},{"type":"Feature","id":"SPIELPLATZPUNKTOGD.2363094","geometry":{"type":"Point","coordinates":[16.44174077,48.15608331]},"geometry_name":"SHAPE","properties":{"OBJECTID":2363094,"ANL_NAME":"PA Feuerhalle Simmering","BEZIRK":11,"SPIELPLATZ_DETAIL":"Basketball, Skaten","TYP_DETAIL":"Ballspielplatz, Skaterpark","SE_ANNO_CAD_DATA":null}},{"type":"Feature","id":"SPIELPLATZPUNKTOGD.2363095","geometry":{"type":"Point","coordinates":[16.43962512,48.15696266]},"geometry_name":"SHAPE","properties":{"OBJECTID":2363095,"ANL_NAME":"GA Feuerhalle Simmering","BEZIRK":11,"SPIELPLATZ_DETAIL":"Basketball, Beachvolleyball","TYP_DETAIL":"Ballspielplatz","SE_ANNO_CAD_DATA":null}},{"type":"Feature","id":"SPIELPLATZPUNKTOGD.2363096","geometry":{"type":"Point","coordinates":[16.48528567,48.15964205]},"geometry_name":"SHAPE","properties":{"OBJECTID":2363096,"ANL_NAME":"PA Mannswörther Straße","BEZIRK":11,"SPIELPLATZ_DETAIL":"Rutschen, Schaukeln, Wippen","TYP_DETAIL":"Kleinkinderspielplatz","SE_ANNO_CAD_DATA":null}},{"type":"Feature","id":"SPIELPLATZPUNKTOGD.2363097","geometry":{"type":"Point","coordinates":[16.48965044,48.27653489]},"geometry_name":"SHAPE","properties":{"OBJECTID":2363097,"ANL_NAME":"Badeteich Süßenbrunn","BEZIRK":22,"SPIELPLATZ_DETAIL":"Klettern, Rutschen, Schaukeln, Wippen","TYP_DETAIL":"Spielplatz","SE_ANNO_CAD_DATA":null}},{"type":"Feature","id":"SPIELPLATZPUNKTOGD.2363098","geometry":{"type":"Point","coordinates":[16.44561385,48.2682273]},"geometry_name":"SHAPE","properties":{"OBJECTID":2363098,"ANL_NAME":"PA Langfeldgasse","BEZIRK":21,"SPIELPLATZ_DETAIL":"Basketball, Tischtennis","TYP_DETAIL":"Ballspielkäfig, Ballspielplatz","SE_ANNO_CAD_DATA":null}},{"type":"Feature","id":"SPIELPLATZPUNKTOGD.2363099","geometry":{"type":"Point","coordinates":[16.38672948,48.2228762]},"geometry_name":"SHAPE","properties":{"OBJECTID":2363099,"ANL_NAME":"GA Volkertplatz","BEZIRK":2,"SPIELPLATZ_DETAIL":"Basketball, Hüpfen, Volleyball, Wippen","TYP_DETAIL":"Ballspielplatz, Spielplatz","SE_ANNO_CAD_DATA":null}},{"type":"Feature","id":"SPIELPLATZPUNKTOGD.2363100","geometry":{"type":"Point","coordinates":[16.30418881,48.21411144]},"geometry_name":"SHAPE","properties":{"OBJECTID":2363100,"ANL_NAME":"Karl-Kantner-Park","BEZIRK":16,"SPIELPLATZ_DETAIL":"Balancieren, Basketball, Fitness, Fußball, Karussell, Klettern, Rutschen, Wasserspiel, Wippen","TYP_DETAIL":"Ballspielkäfig, Generationenspielplatz, Kleinkinderspielplatz","SE_ANNO_CAD_DATA":null}},{"type":"Feature","id":"SPIELPLATZPUNKTOGD.2363101","geometry":{"type":"Point","coordinates":[16.40423345,48.19596387]},"geometry_name":"SHAPE","properties":{"OBJECTID":2363101,"ANL_NAME":"Bock-Park","BEZIRK":3,"SPIELPLATZ_DETAIL":"Klettern, Streetball","TYP_DETAIL":"Ballspielkäfig, Spielplatz","SE_ANNO_CAD_DATA":null}},{"type":"Feature","id":"SPIELPLATZPUNKTOGD.2363102","geometry":{"type":"Point","coordinates":[16.4225246,48.27576855]},"geometry_name":"SHAPE","properties":{"OBJECTID":2363102,"ANL_NAME":"PA Pfendlergasse","BEZIRK":21,"SPIELPLATZ_DETAIL":"Fitness, Fußball","TYP_DETAIL":"Ballspielplatz, Generationenspielplatz","SE_ANNO_CAD_DATA":null}},{"type":"Feature","id":"SPIELPLATZPUNKTOGD.2363103","geometry":{"type":"Point","coordinates":[16.34898018,48.24577316]},"geometry_name":"SHAPE","properties":{"OBJECTID":2363103,"ANL_NAME":"Saarpark","BEZIRK":19,"SPIELPLATZ_DETAIL":"Balancieren, Boccia, Klettern, Rutschen, Sandspielen, Schaukeln, Tischtennis","TYP_DETAIL":"Ballspielplatz, Kleinkinderspielplatz","SE_ANNO_CAD_DATA":null}},{"type":"Feature","id":"SPIELPLATZPUNKTOGD.2363104","geometry":{"type":"Point","coordinates":[16.35445356,48.2036817]},"geometry_name":"SHAPE","properties":{"OBJECTID":2363104,"ANL_NAME":"Vally-Wieselthier-Park","BEZIRK":7,"SPIELPLATZ_DETAIL":"Balancieren, Sandspielen, Trampolin","TYP_DETAIL":"Spielplatz","SE_ANNO_CAD_DATA":null}},{"type":"Feature","id":"SPIELPLATZPUNKTOGD.2363105","geometry":{"type":"Point","coordinates":[16.43253019,48.24830116]},"geometry_name":"SHAPE","properties":{"OBJECTID":2363105,"ANL_NAME":"Kirschblütenpark","BEZIRK":22,"SPIELPLATZ_DETAIL":"Balancieren","TYP_DETAIL":"Spielplatz","SE_ANNO_CAD_DATA":null}},{"type":"Feature","id":"SPIELPLATZPUNKTOGD.2363106","geometry":{"type":"Point","coordinates":[16.43248273,48.24730682]},"geometry_name":"SHAPE","properties":{"OBJECTID":2363106,"ANL_NAME":"Kirschblütenpark","BEZIRK":22,"SPIELPLATZ_DETAIL":"Generationenspielplatz, Klettern, Rutsche, Rutschen, Schaukel, Schaukeln, Skaten, Streetball, Volleyball, Wasserspiel, Wippe","TYP_DETAIL":"Ballspielplatz, Generationenspielplatz, Kleinkinderspielplatz, Skaterpark, Spielplatz","SE_ANNO_CAD_DATA":null}},{"type":"Feature","id":"SPIELPLATZPUNKTOGD.2363107","geometry":{"type":"Point","coordinates":[16.32851039,48.17291351]},"geometry_name":"SHAPE","properties":{"OBJECTID":2363107,"ANL_NAME":"Theodor-Körner-Park","BEZIRK":12,"SPIELPLATZ_DETAIL":"Karussell, Klettern, Schaukeln, Volleyball, Wasserspiel","TYP_DETAIL":"Ballspielplatz, Spielplatz, Wasserspielplatz","SE_ANNO_CAD_DATA":null}},{"type":"Feature","id":"SPIELPLATZPUNKTOGD.2363108","geometry":{"type":"Point","coordinates":[16.40277492,48.24769295]},"geometry_name":"SHAPE","properties":{"OBJECTID":2363108,"ANL_NAME":"PA Angeliwiese","BEZIRK":21,"SPIELPLATZ_DETAIL":"Balancieren, Klettern, Rutschen, Sandspielen, Schaukeln, Spielhaus, Spieltier, Wippe","TYP_DETAIL":"Spielplatz","SE_ANNO_CAD_DATA":null}},{"type":"Feature","id":"SPIELPLATZPUNKTOGD.2363109","geometry":{"type":"Point","coordinates":[16.50085198,48.22356381]},"geometry_name":"SHAPE","properties":{"OBJECTID":2363109,"ANL_NAME":"Hannah-Arendt-Park","BEZIRK":22,"SPIELPLATZ_DETAIL":"Fitness, Slacklining","TYP_DETAIL":"Generationenspielplatz, sonstiger Spielplatz","SE_ANNO_CAD_DATA":null}},{"type":"Feature","id":"SPIELPLATZPUNKTOGD.2363110","geometry":{"type":"Point","coordinates":[16.50187414,48.22327006]},"geometry_name":"SHAPE","properties":{"OBJECTID":2363110,"ANL_NAME":"Hannah-Arendt-Park","BEZIRK":22,"SPIELPLATZ_DETAIL":", Hängematte, Karussell, Klettern, Rutschen, Schaukeln, Trampolin, Wasserspiel, Wippen","TYP_DETAIL":"Kleinkinderspielplatz, Spielplatz","SE_ANNO_CAD_DATA":null}},{"type":"Feature","id":"SPIELPLATZPUNKTOGD.2363111","geometry":{"type":"Point","coordinates":[16.31530559,48.13995398]},"geometry_name":"SHAPE","properties":{"OBJECTID":2363111,"ANL_NAME":"PaN-Park","BEZIRK":23,"SPIELPLATZ_DETAIL":"Basketball, Beachvolleyball, Fitness, Fußball, Klettern, Rutschen, Sandspielen, Schaukeln, Seilbahn, Skaten, Tischtennis, Trampolin, Wippen","TYP_DETAIL":"Ballspielkäfig, Ballspielplatz, Generationenspielplatz, Kleinkinderspielplatz, Skaterpark, Spielplatz","SE_ANNO_CAD_DATA":null}},{"type":"Feature","id":"SPIELPLATZPUNKTOGD.2363112","geometry":{"type":"Point","coordinates":[16.36766532,48.21455747]},"geometry_name":"SHAPE","properties":{"OBJECTID":2363112,"ANL_NAME":"Hermann-Gmeiner-Park","BEZIRK":1,"SPIELPLATZ_DETAIL":"Fußball, Klettern, Reck, Rutschen, Sandspielen, Schaukeln, Seilbahn, Streetball, Wippen","TYP_DETAIL":"Ballspielkäfig, Kleinkinderspielplatz, Spielplatz","SE_ANNO_CAD_DATA":null}},{"type":"Feature","id":"SPIELPLATZPUNKTOGD.2363113","geometry":{"type":"Point","coordinates":[16.47584226,48.21257478]},"geometry_name":"SHAPE","properties":{"OBJECTID":2363113,"ANL_NAME":"PA Am Müllnermais","BEZIRK":22,"SPIELPLATZ_DETAIL":"Hängematte, Klettern, Sandspielen, Schaukeln, Spielhaus, Tischtennis, Wasserspiel, Wippen","TYP_DETAIL":"Ballspielplatz, Kleinkinderspielplatz, Spielplatz","SE_ANNO_CAD_DATA":null}},{"type":"Feature","id":"SPIELPLATZPUNKTOGD.2363114","geometry":{"type":"Point","coordinates":[16.47669707,48.2529902]},"geometry_name":"SHAPE","properties":{"OBJECTID":2363114,"ANL_NAME":"Motorikpark","BEZIRK":22,"SPIELPLATZ_DETAIL":"Fitness, Trampolin","TYP_DETAIL":"Generationenspielplatz","SE_ANNO_CAD_DATA":null}},{"type":"Feature","id":"SPIELPLATZPUNKTOGD.2363115","geometry":{"type":"Point","coordinates":[16.47764962,48.25378955]},"geometry_name":"SHAPE","properties":{"OBJECTID":2363115,"ANL_NAME":"Motorikpark","BEZIRK":22,"SPIELPLATZ_DETAIL":"Rutschen, Sand-Matsch, Schaukeln","TYP_DETAIL":"Kleinkinderspielplatz","SE_ANNO_CAD_DATA":null}},{"type":"Feature","id":"SPIELPLATZPUNKTOGD.2363116","geometry":{"type":"Point","coordinates":[16.47848413,48.2541919]},"geometry_name":"SHAPE","properties":{"OBJECTID":2363116,"ANL_NAME":"Motorikpark","BEZIRK":22,"SPIELPLATZ_DETAIL":"Fußball","TYP_DETAIL":"Ballspielplatz","SE_ANNO_CAD_DATA":null}},{"type":"Feature","id":"SPIELPLATZPUNKTOGD.2363117","geometry":{"type":"Point","coordinates":[16.47748829,48.2546402]},"geometry_name":"SHAPE","properties":{"OBJECTID":2363117,"ANL_NAME":"Motorikpark","BEZIRK":22,"SPIELPLATZ_DETAIL":"Karussel, Wippen","TYP_DETAIL":"Kleinkinderspielplatz","SE_ANNO_CAD_DATA":null}},{"type":"Feature","id":"SPIELPLATZPUNKTOGD.2363118","geometry":{"type":"Point","coordinates":[16.33547877,48.1989323]},"geometry_name":"SHAPE","properties":{"OBJECTID":2363118,"ANL_NAME":"Goldschlagstraße 1-126","BEZIRK":15,"SPIELPLATZ_DETAIL":"Spieltier","TYP_DETAIL":"Spielplatz","SE_ANNO_CAD_DATA":null}},{"type":"Feature","id":"SPIELPLATZPUNKTOGD.2363119","geometry":{"type":"Point","coordinates":[16.49494988,48.27795384]},"geometry_name":"SHAPE","properties":{"OBJECTID":2363119,"ANL_NAME":"GA Süßenbrunner Platz","BEZIRK":22,"SPIELPLATZ_DETAIL":"Hängematte, Karussel","TYP_DETAIL":"Spielplatz","SE_ANNO_CAD_DATA":null}},{"type":"Feature","id":"SPIELPLATZPUNKTOGD.2363120","geometry":{"type":"Point","coordinates":[16.31303412,48.22032848]},"geometry_name":"SHAPE","properties":{"OBJECTID":2363120,"ANL_NAME":"Else-Federn-Park","BEZIRK":16,"SPIELPLATZ_DETAIL":"Klettern, Rutschen, Sandspielen, Schaukeln, Wippen","TYP_DETAIL":"Kleinkinderspielplatz, Spielplatz","SE_ANNO_CAD_DATA":null}},{"type":"Feature","id":"SPIELPLATZPUNKTOGD.2363121","geometry":{"type":"Point","coordinates":[16.41442608,48.21944637]},"geometry_name":"SHAPE","properties":{"OBJECTID":2363121,"ANL_NAME":"Rechter Donaudamm Spielplatz 1","BEZIRK":2,"SPIELPLATZ_DETAIL":"Fußball","TYP_DETAIL":"Ballspielkäfig","SE_ANNO_CAD_DATA":null}},{"type":"Feature","id":"SPIELPLATZPUNKTOGD.2363122","geometry":{"type":"Point","coordinates":[16.50969154,48.22935615]},"geometry_name":"SHAPE","properties":{"OBJECTID":2363122,"ANL_NAME":"GA Am-Ostrom-Park","BEZIRK":22,"SPIELPLATZ_DETAIL":"Klettern","TYP_DETAIL":"Spielplatz","SE_ANNO_CAD_DATA":null}},{"type":"Feature","id":"SPIELPLATZPUNKTOGD.2363123","geometry":{"type":"Point","coordinates":[16.37829938,48.14828782]},"geometry_name":"SHAPE","properties":{"OBJECTID":2363123,"ANL_NAME":"PA Per-Albin-Hansson-Straße","BEZIRK":10,"SPIELPLATZ_DETAIL":"Fußball","TYP_DETAIL":"Ballspielplatz","SE_ANNO_CAD_DATA":null}},{"type":"Feature","id":"SPIELPLATZPUNKTOGD.2363124","geometry":{"type":"Point","coordinates":[16.37750586,48.14779181]},"geometry_name":"SHAPE","properties":{"OBJECTID":2363124,"ANL_NAME":"PA Per-Albin-Hansson-Straße","BEZIRK":10,"SPIELPLATZ_DETAIL":"Beachvolleyball, Fußball","TYP_DETAIL":"Ballspielkäfig","SE_ANNO_CAD_DATA":null}},{"type":"Feature","id":"SPIELPLATZPUNKTOGD.2363125","geometry":{"type":"Point","coordinates":[16.37624829,48.14817617]},"geometry_name":"SHAPE","properties":{"OBJECTID":2363125,"ANL_NAME":"PA Per-Albin-Hansson-Straße","BEZIRK":10,"SPIELPLATZ_DETAIL":"Klettern, Rutschen, Schaukeln, Spielhaus","TYP_DETAIL":"Spielplatz","SE_ANNO_CAD_DATA":null}},{"type":"Feature","id":"SPIELPLATZPUNKTOGD.2363126","geometry":{"type":"Point","coordinates":[16.36094472,48.17462452]},"geometry_name":"SHAPE","properties":{"OBJECTID":2363126,"ANL_NAME":"Barankapark-Hellerwiese","BEZIRK":10,"SPIELPLATZ_DETAIL":"Drehen, Fußball, Hängematte, Klettern, Reck, Sandspielen, Schaukeln, Spielhaus, Streetball, Wippen","TYP_DETAIL":"Ballspielkäfig, Spielplatz","SE_ANNO_CAD_DATA":null}},{"type":"Feature","id":"SPIELPLATZPUNKTOGD.2363127","geometry":{"type":"Point","coordinates":[16.33454216,48.22605175]},"geometry_name":"SHAPE","properties":{"OBJECTID":2363127,"ANL_NAME":"GA Staudgasse","BEZIRK":18,"SPIELPLATZ_DETAIL":"Tischtennis","TYP_DETAIL":"Ballspielkäfig, Ballspielplatz","SE_ANNO_CAD_DATA":null}},{"type":"Feature","id":"SPIELPLATZPUNKTOGD.2363039","geometry":{"type":"Point","coordinates":[16.34535647,48.20882305]},"geometry_name":"SHAPE","properties":{"OBJECTID":2363039,"ANL_NAME":"Tigerpark","BEZIRK":8,"SPIELPLATZ_DETAIL":"Balancieren, Reck, Rutschen, Sandspielen, Schaukeln, Spielhaus, Tischtennis, Wippen","TYP_DETAIL":"Ballspielplatz, Kleinkinderspielplatz, Spielplatz","SE_ANNO_CAD_DATA":null}},{"type":"Feature","id":"SPIELPLATZPUNKTOGD.2363040","geometry":{"type":"Point","coordinates":[16.29526778,48.2306521]},"geometry_name":"SHAPE","properties":{"OBJECTID":2363040,"ANL_NAME":"Schrammelpark","BEZIRK":17,"SPIELPLATZ_DETAIL":"Klettern, Rutsche, Wippen","TYP_DETAIL":"Kleinkinderspielplatz","SE_ANNO_CAD_DATA":null}},{"type":"Feature","id":"SPIELPLATZPUNKTOGD.2363041","geometry":{"type":"Point","coordinates":[16.35962913,48.24352266]},"geometry_name":"SHAPE","properties":{"OBJECTID":2363041,"ANL_NAME":"Wertheimsteinpark","BEZIRK":19,"SPIELPLATZ_DETAIL":"Basketball, Fußball","TYP_DETAIL":"Ballspielkäfig","SE_ANNO_CAD_DATA":null}},{"type":"Feature","id":"SPIELPLATZPUNKTOGD.2363042","geometry":{"type":"Point","coordinates":[16.35966713,48.24257568]},"geometry_name":"SHAPE","properties":{"OBJECTID":2363042,"ANL_NAME":"Wertheimsteinpark","BEZIRK":19,"SPIELPLATZ_DETAIL":"Klettern, Rutschen, Sandspielen, Schaukeln, Slackline, Spielhaus, Wippen","TYP_DETAIL":"Spielplatz, sonstiger Spielplatz","SE_ANNO_CAD_DATA":null}},{"type":"Feature","id":"SPIELPLATZPUNKTOGD.2363043","geometry":{"type":"Point","coordinates":[16.28748443,48.18508062]},"geometry_name":"SHAPE","properties":{"OBJECTID":2363043,"ANL_NAME":"Hügelpark","BEZIRK":13,"SPIELPLATZ_DETAIL":"Balancieren, Drehen, Fußballplatz, Hüpfen, Rutschen, Sandspielen, Schaukeln, Wippen","TYP_DETAIL":"Ballspielplatz, Kleinkinderspielplatz","SE_ANNO_CAD_DATA":null}},{"type":"Feature","id":"SPIELPLATZPUNKTOGD.2363044","geometry":{"type":"Point","coordinates":[16.3231995,48.15971751]},"geometry_name":"SHAPE","properties":{"OBJECTID":2363044,"ANL_NAME":"PA An den Eisteichen","BEZIRK":12,"SPIELPLATZ_DETAIL":"Rodelhügel","TYP_DETAIL":"sonstiger Spielplatz","SE_ANNO_CAD_DATA":null}},{"type":"Feature","id":"SPIELPLATZPUNKTOGD.2363045","geometry":{"type":"Point","coordinates":[16.32389145,48.16081593]},"geometry_name":"SHAPE","properties":{"OBJECTID":2363045,"ANL_NAME":"PA An den Eisteichen","BEZIRK":12,"SPIELPLATZ_DETAIL":"Basektball, Fußball, Klettern, Rutschen, Sandspielen, Schaukeln, Skaten, Slackline, Wippen","TYP_DETAIL":"Ballspielkäfig, Kleinkinderspielplatz, Skaterpark, sonstiger Spielplatz","SE_ANNO_CAD_DATA":null}},{"type":"Feature","id":"SPIELPLATZPUNKTOGD.2363046","geometry":{"type":"Point","coordinates":[16.31512354,48.20643022]},"geometry_name":"SHAPE","properties":{"OBJECTID":2363046,"ANL_NAME":"Rohrauerpark","BEZIRK":15,"SPIELPLATZ_DETAIL":"Balancieren, Brettspiel, Fußball, Hängematte, Klettern, Rutschen, Sandspielen, Schaukeln, Streetball, Tischtennis, Wippen","TYP_DETAIL":"Ballspielkäfig, Ballspielplatz, Spielplatz","SE_ANNO_CAD_DATA":null}},{"type":"Feature","id":"SPIELPLATZPUNKTOGD.2363047","geometry":{"type":"Point","coordinates":[16.27407019,48.18088403]},"geometry_name":"SHAPE","properties":{"OBJECTID":2363047,"ANL_NAME":"PA Roter Berg","BEZIRK":13,"SPIELPLATZ_DETAIL":"Karussell, Klettern, Rutschen, Sandspielen, Schaukeln, Wasserspiel, Wippen","TYP_DETAIL":"Spielplatz","SE_ANNO_CAD_DATA":null}},{"type":"Feature","id":"SPIELPLATZPUNKTOGD.2363048","geometry":{"type":"Point","coordinates":[16.27579434,48.18055957]},"geometry_name":"SHAPE","properties":{"OBJECTID":2363048,"ANL_NAME":"PA Roter Berg","BEZIRK":13,"SPIELPLATZ_DETAIL":"Fitness, Fußball, Rodelhügel","TYP_DETAIL":"Ballspielplatz, Generationenspielplatz, sonstiger Spielplatz","SE_ANNO_CAD_DATA":null}},{"type":"Feature","id":"SPIELPLATZPUNKTOGD.2363049","geometry":{"type":"Point","coordinates":[16.26883356,48.18239344]},"geometry_name":"SHAPE","properties":{"OBJECTID":2363049,"ANL_NAME":"PA Roter Berg","BEZIRK":13,"SPIELPLATZ_DETAIL":"Balancieren, Drehen, Fitness, Hüpfen, Karussell, Klettern, Rutschen, Sandspielen, Schaukeln, Spielhaus, Wippen","TYP_DETAIL":"Spielplatz","SE_ANNO_CAD_DATA":null}},{"type":"Feature","id":"SPIELPLATZPUNKTOGD.2363050","geometry":{"type":"Point","coordinates":[16.39450697,48.17184109]},"geometry_name":"SHAPE","properties":{"OBJECTID":2363050,"ANL_NAME":"PA Quellenstraße","BEZIRK":10,"SPIELPLATZ_DETAIL":"Basketball, Calisthenics, Fußball, Klettern, Reck, Rutschen, Schauckeln, Tischtennis, Wippen","TYP_DETAIL":"Ballspielkäfig, Ballspielplatz, Generationenspielplatz, Spielplatz","SE_ANNO_CAD_DATA":null}},{"type":"Feature","id":"SPIELPLATZPUNKTOGD.2363051","geometry":{"type":"Point","coordinates":[16.47483656,48.23948218]},"geometry_name":"SHAPE","properties":{"OBJECTID":2363051,"ANL_NAME":"Blumengärten Hirschstetten","BEZIRK":22,"SPIELPLATZ_DETAIL":"Balanciergerät, Karussell, Klettern, Rutsche, Schaukel, Spieltisch, Wippe","TYP_DETAIL":"Spielplatz","SE_ANNO_CAD_DATA":null}},{"type":"Feature","id":"SPIELPLATZPUNKTOGD.2363052","geometry":{"type":"Point","coordinates":[16.41669538,48.21584704]},"geometry_name":"SHAPE","properties":{"OBJECTID":2363052,"ANL_NAME":"Fritzi-Massary-Park","BEZIRK":2,"SPIELPLATZ_DETAIL":"Balancieren, Rutschen, Sand-Matsch, Schaukeln, Seilbahn, Trampolin, Wasserspiel, Wippen","TYP_DETAIL":"Spielplatz","SE_ANNO_CAD_DATA":null}},{"type":"Feature","id":"SPIELPLATZPUNKTOGD.2363053","geometry":{"type":"Point","coordinates":[16.39053727,48.24623154]},"geometry_name":"SHAPE","properties":{"OBJECTID":2363053,"ANL_NAME":"Donauinsel Spielplatz 3","BEZIRK":21,"SPIELPLATZ_DETAIL":"Klettern, Rutschen, Sandspielen, Schaukeln, Wippen","TYP_DETAIL":"Spielplatz","SE_ANNO_CAD_DATA":null}},{"type":"Feature","id":"SPIELPLATZPUNKTOGD.2363054","geometry":{"type":"Point","coordinates":[16.52511245,48.21811313]},"geometry_name":"SHAPE","properties":{"OBJECTID":2363054,"ANL_NAME":"PA Rosenbergstraße","BEZIRK":22,"SPIELPLATZ_DETAIL":"Balancieren, Klettern, Rutschen, Schaukeln, Spieltier","TYP_DETAIL":"Spielplatz","SE_ANNO_CAD_DATA":null}},{"type":"Feature","id":"SPIELPLATZPUNKTOGD.2363055","geometry":{"type":"Point","coordinates":[16.37812888,48.17430045]},"geometry_name":"SHAPE","properties":{"OBJECTID":2363055,"ANL_NAME":"GA Reumannplatz","BEZIRK":10,"SPIELPLATZ_DETAIL":"Balancieren, Drehen, Geschicklichkeitsspiel","TYP_DETAIL":"Spielplatz","SE_ANNO_CAD_DATA":null}},{"type":"Feature","id":"SPIELPLATZPUNKTOGD.2363056","geometry":{"type":"Point","coordinates":[16.5261398,48.21475439]},"geometry_name":"SHAPE","properties":{"OBJECTID":2363056,"ANL_NAME":"Bill-Grah-Park","BEZIRK":22,"SPIELPLATZ_DETAIL":"Klettern, Wippen","TYP_DETAIL":"Spielplatz","SE_ANNO_CAD_DATA":null}},{"type":"Feature","id":"SPIELPLATZPUNKTOGD.2363057","geometry":{"type":"Point","coordinates":[16.32679444,48.16467676]},"geometry_name":"SHAPE","properties":{"OBJECTID":2363057,"ANL_NAME":"Miep-Gies-Park","BEZIRK":12,"SPIELPLATZ_DETAIL":"Balancieren, Fitnessgeräte, Karussell, Klettern, Rutschen, Sandspielen, Schaukeln, Spieltisch, Wippen","TYP_DETAIL":"Generationenspielplatz, Kleinkinderspielplatz, Spielplatz, Themenspielplatz","SE_ANNO_CAD_DATA":null}},{"type":"Feature","id":"SPIELPLATZPUNKTOGD.2363058","geometry":{"type":"Point","coordinates":[16.36137491,48.1899615]},"geometry_name":"SHAPE","properties":{"OBJECTID":2363058,"ANL_NAME":"Schütte-Lihotzky-Park","BEZIRK":5,"SPIELPLATZ_DETAIL":", Basketball, Klettern, Rutschen, Sandkiste, Schaukeln","TYP_DETAIL":"Ballspielkäfig, Kleinkinderspielplatz, Spielplatz","SE_ANNO_CAD_DATA":null}},{"type":"Feature","id":"SPIELPLATZPUNKTOGD.2363059","geometry":{"type":"Point","coordinates":[16.30137165,48.14952469]},"geometry_name":"SHAPE","properties":{"OBJECTID":2363059,"ANL_NAME":"Stadtpark Atzgersdorf","BEZIRK":23,"SPIELPLATZ_DETAIL":"Calisthenics, Fitness, Klettern, Rutschen, Sandspielen, Schaukeln, Slackline, Tischtennis, Volleyball, Wasserspiel, Wippen","TYP_DETAIL":"Ballspielplatz, Generationenspielplatz, Kleinkinderspielplatz, Spielplatz, Wasserspielplatz, sonstiger Spielplatz","SE_ANNO_CAD_DATA":null}},{"type":"Feature","id":"SPIELPLATZPUNKTOGD.2363060","geometry":{"type":"Point","coordinates":[16.3863692,48.29478202]},"geometry_name":"SHAPE","properties":{"OBJECTID":2363060,"ANL_NAME":"PA Mayerweckstraße","BEZIRK":21,"SPIELPLATZ_DETAIL":"Klettern, Rutschen, Schaukeln, Tischtennis, Wippen","TYP_DETAIL":"Ballspielplatz, Spielplatz","SE_ANNO_CAD_DATA":null}},{"type":"Feature","id":"SPIELPLATZPUNKTOGD.2363061","geometry":{"type":"Point","coordinates":[16.3686043,48.17094763]},"geometry_name":"SHAPE","properties":{"OBJECTID":2363061,"ANL_NAME":"PA Paltramplatz","BEZIRK":10,"SPIELPLATZ_DETAIL":"Balancieren, Calistenic, Fußball, Klettern, Rutschen, Sandspielen, Schaukeln, Streetball, Tischtennis, Wippen","TYP_DETAIL":"Ballspielkäfig, Ballspielplatz, Generationenspielplatz, Kleinkinderspielplatz, Spielplatz","SE_ANNO_CAD_DATA":null}},{"type":"Feature","id":"SPIELPLATZPUNKTOGD.2363062","geometry":{"type":"Point","coordinates":[16.46119017,48.23408604]},"geometry_name":"SHAPE","properties":{"OBJECTID":2363062,"ANL_NAME":"Hirschstettner Aupark","BEZIRK":22,"SPIELPLATZ_DETAIL":"Klettern, Rutschen, Sand-Matsch, Sandspielen, Schaukeln, Tischtennis, Wasserspiel, Wippen","TYP_DETAIL":"Ballspielplatz, Spielplatz","SE_ANNO_CAD_DATA":null}},{"type":"Feature","id":"SPIELPLATZPUNKTOGD.2363063","geometry":{"type":"Point","coordinates":[16.46031956,48.23370493]},"geometry_name":"SHAPE","properties":{"OBJECTID":2363063,"ANL_NAME":"Hirschstettner Aupark","BEZIRK":22,"SPIELPLATZ_DETAIL":"Wippe","TYP_DETAIL":"Spielplatz","SE_ANNO_CAD_DATA":null}},{"type":"Feature","id":"SPIELPLATZPUNKTOGD.2363064","geometry":{"type":"Point","coordinates":[16.38616267,48.17223887]},"geometry_name":"SHAPE","properties":{"OBJECTID":2363064,"ANL_NAME":"Puchsbaumpark","BEZIRK":10,"SPIELPLATZ_DETAIL":"Basketball, Fitness, Fußball, Klettern, Rutschen, Sandspielen, Schaukeln","TYP_DETAIL":"Ballspielkäfig, Generationenspielplatz, Kleinkinderspielplatz","SE_ANNO_CAD_DATA":null}},{"type":"Feature","id":"SPIELPLATZPUNKTOGD.2363065","geometry":{"type":"Point","coordinates":[16.31837268,48.18956772]},"geometry_name":"SHAPE","properties":{"OBJECTID":2363065,"ANL_NAME":"Auer-Welsbach-Park","BEZIRK":15,"SPIELPLATZ_DETAIL":"Balancieren, Basketball, Fitness, Klettern, Rutschen, Sand - Matsch, Schaukeln, Spielhaus, Tischtennis, Volleyball, Wasserspiel, Wippen","TYP_DETAIL":"Ballspielplatz, Generationenspielplatz, Kleinkinderspielplatz, Spielplatz","SE_ANNO_CAD_DATA":null}},{"type":"Feature","id":"SPIELPLATZPUNKTOGD.2363066","geometry":{"type":"Point","coordinates":[16.31877751,48.18682844]},"geometry_name":"SHAPE","properties":{"OBJECTID":2363066,"ANL_NAME":"Auer-Welsbach-Park","BEZIRK":15,"SPIELPLATZ_DETAIL":"Boccia, Slackline","TYP_DETAIL":"Ballspielplatz, sonstiger Spielplatz","SE_ANNO_CAD_DATA":null}},{"type":"Feature","id":"SPIELPLATZPUNKTOGD.2362747","geometry":{"type":"Point","coordinates":[16.42915835,48.16533204]},"geometry_name":"SHAPE","properties":{"OBJECTID":2362747,"ANL_NAME":"PA Dürrnbacherstraße","BEZIRK":11,"SPIELPLATZ_DETAIL":"Karussell, Klettern, Rutschen, Sandspielen, Schaukeln, Wippen","TYP_DETAIL":"Kleinkinderspielplatz","SE_ANNO_CAD_DATA":null}},{"type":"Feature","id":"SPIELPLATZPUNKTOGD.2362748","geometry":{"type":"Point","coordinates":[16.42999405,48.16463226]},"geometry_name":"SHAPE","properties":{"OBJECTID":2362748,"ANL_NAME":"PA Dürrnbacherstraße","BEZIRK":11,"SPIELPLATZ_DETAIL":"Basketball, Tischtennis","TYP_DETAIL":"Ballspielplatz","SE_ANNO_CAD_DATA":null}},{"type":"Feature","id":"SPIELPLATZPUNKTOGD.2362749","geometry":{"type":"Point","coordinates":[16.42587299,48.1672232]},"geometry_name":"SHAPE","properties":{"OBJECTID":2362749,"ANL_NAME":"PA Dürrnbacherstraße","BEZIRK":11,"SPIELPLATZ_DETAIL":"Rutschen, Schaukeln, Wippen","TYP_DETAIL":"Kleinkinderspielplatz","SE_ANNO_CAD_DATA":null}},{"type":"Feature","id":"SPIELPLATZPUNKTOGD.2362750","geometry":{"type":"Point","coordinates":[16.44458145,48.28665929]},"geometry_name":"SHAPE","properties":{"OBJECTID":2362750,"ANL_NAME":"Josef-Grössing-Park","BEZIRK":21,"SPIELPLATZ_DETAIL":"Basketball","TYP_DETAIL":"Ballspielplatz","SE_ANNO_CAD_DATA":null}},{"type":"Feature","id":"SPIELPLATZPUNKTOGD.2362751","geometry":{"type":"Point","coordinates":[16.44374513,48.28615898]},"geometry_name":"SHAPE","properties":{"OBJECTID":2362751,"ANL_NAME":"Josef-Grössing-Park","BEZIRK":21,"SPIELPLATZ_DETAIL":"Fußball, Klettern, Rutschen, Schaukeln, Seilbahn, Wippen","TYP_DETAIL":"Ballspielplatz, Spielplatz","SE_ANNO_CAD_DATA":null}},{"type":"Feature","id":"SPIELPLATZPUNKTOGD.2362752","geometry":{"type":"Point","coordinates":[16.35561091,48.18783074]},"geometry_name":"SHAPE","properties":{"OBJECTID":2362752,"ANL_NAME":"Bacherpark","BEZIRK":5,"SPIELPLATZ_DETAIL":", Basketball, Fussball, Klettern, Rutschen, Sandspielen, Schaukeln, Tischtennis, Wippen","TYP_DETAIL":"Ballspielkäfig, Ballspielplatz, Spielplatz","SE_ANNO_CAD_DATA":null}},{"type":"Feature","id":"SPIELPLATZPUNKTOGD.2362753","geometry":{"type":"Point","coordinates":[16.34582982,48.22365897]},"geometry_name":"SHAPE","properties":{"OBJECTID":2362753,"ANL_NAME":"Vilma-Degischer-Park","BEZIRK":18,"SPIELPLATZ_DETAIL":"Klettern, Rutschen, Schach, Schaukeln","TYP_DETAIL":"Generationenspielplatz, Spielplatz","SE_ANNO_CAD_DATA":null}},{"type":"Feature","id":"SPIELPLATZPUNKTOGD.2362754","geometry":{"type":"Point","coordinates":[16.4720714,48.15716291]},"geometry_name":"SHAPE","properties":{"OBJECTID":2362754,"ANL_NAME":"PA Muhrhoferweg","BEZIRK":11,"SPIELPLATZ_DETAIL":"Basketball, Fußball, Klettern, Rutschen, Sand-Matsch, Sandspielen, Schaukeln, Spielhaus, Wasserspiel, Wippen","TYP_DETAIL":"Ballspielplatz, Spielplatz","SE_ANNO_CAD_DATA":null}},{"type":"Feature","id":"SPIELPLATZPUNKTOGD.2362755","geometry":{"type":"Point","coordinates":[16.52585457,48.2135878]},"geometry_name":"SHAPE","properties":{"OBJECTID":2362755,"ANL_NAME":"Jazzpark Essling","BEZIRK":22,"SPIELPLATZ_DETAIL":"Fitness","TYP_DETAIL":"Generationenspielplatz","SE_ANNO_CAD_DATA":null}},{"type":"Feature","id":"SPIELPLATZPUNKTOGD.2362756","geometry":{"type":"Point","coordinates":[16.35761259,48.25215558]},"geometry_name":"SHAPE","properties":{"OBJECTID":2362756,"ANL_NAME":"Rothschildgarten","BEZIRK":19,"SPIELPLATZ_DETAIL":"Rutschen, Sandspielen, Wippen","TYP_DETAIL":"Kleinkinderspielplatz","SE_ANNO_CAD_DATA":null}},{"type":"Feature","id":"SPIELPLATZPUNKTOGD.2362757","geometry":{"type":"Point","coordinates":[16.35817485,48.25147044]},"geometry_name":"SHAPE","properties":{"OBJECTID":2362757,"ANL_NAME":"Rothschildgarten","BEZIRK":19,"SPIELPLATZ_DETAIL":"Steetball","TYP_DETAIL":"Ballspielkäfig","SE_ANNO_CAD_DATA":null}},{"type":"Feature","id":"SPIELPLATZPUNKTOGD.2362758","geometry":{"type":"Point","coordinates":[16.41544909,48.18092289]},"geometry_name":"SHAPE","properties":{"OBJECTID":2362758,"ANL_NAME":"PA Fuchsröhrenstraße","BEZIRK":11,"SPIELPLATZ_DETAIL":"Drehen, Klettern, Rutschen, Sandspielen, Schaukeln, Wippen","TYP_DETAIL":"Kleinkinderspielplatz","SE_ANNO_CAD_DATA":null}},{"type":"Feature","id":"SPIELPLATZPUNKTOGD.2362759","geometry":{"type":"Point","coordinates":[16.41813783,48.16873054]},"geometry_name":"SHAPE","properties":{"OBJECTID":2362759,"ANL_NAME":"PA Haugerstraße","BEZIRK":11,"SPIELPLATZ_DETAIL":"Basketball, Fitness","TYP_DETAIL":"Ballspielkäfig, Generationenspielplatz","SE_ANNO_CAD_DATA":null}},{"type":"Feature","id":"SPIELPLATZPUNKTOGD.2362760","geometry":{"type":"Point","coordinates":[16.44850962,48.24864962]},"geometry_name":"SHAPE","properties":{"OBJECTID":2362760,"ANL_NAME":"PA Kagraner Platz","BEZIRK":22,"SPIELPLATZ_DETAIL":"Rutschen, Sandspielen, Schaukeln, Wippen","TYP_DETAIL":"Kleinkinderspielplatz","SE_ANNO_CAD_DATA":null}},{"type":"Feature","id":"SPIELPLATZPUNKTOGD.2362761","geometry":{"type":"Point","coordinates":[16.51004615,48.229802]},"geometry_name":"SHAPE","properties":{"OBJECTID":2362761,"ANL_NAME":"Elinor-Ostrom-Park","BEZIRK":22,"SPIELPLATZ_DETAIL":"Balancieren, Fahrradparcour, Fitness, Klettern, Slackline","TYP_DETAIL":"Generationenspielplatz, sonstiger Spielplatz","SE_ANNO_CAD_DATA":null}},{"type":"Feature","id":"SPIELPLATZPUNKTOGD.2362762","geometry":{"type":"Point","coordinates":[16.51015036,48.23111571]},"geometry_name":"SHAPE","properties":{"OBJECTID":2362762,"ANL_NAME":"Elinor-Ostrom-Park","BEZIRK":22,"SPIELPLATZ_DETAIL":"Balancieren, Fitness, Klettern, Rutschen, Sandspielen, Schaukeln, Wippe, Wippen","TYP_DETAIL":"Generationenspielplatz, Spielplatz","SE_ANNO_CAD_DATA":null}},{"type":"Feature","id":"SPIELPLATZPUNKTOGD.2362763","geometry":{"type":"Point","coordinates":[16.50966417,48.22815185]},"geometry_name":"SHAPE","properties":{"OBJECTID":2362763,"ANL_NAME":"Elinor-Ostrom-Park","BEZIRK":22,"SPIELPLATZ_DETAIL":"Balancieren, Basketball, Fitness, Fußball, Klettern, Sandspielen, Streetball, Volleyball, Wasserspiel","TYP_DETAIL":"Ballspielplatz, Generationenspielplatz, Spielplatz, Wasserspielplatz","SE_ANNO_CAD_DATA":null}},{"type":"Feature","id":"SPIELPLATZPUNKTOGD.2362764","geometry":{"type":"Point","coordinates":[16.32141517,48.24122281]},"geometry_name":"SHAPE","properties":{"OBJECTID":2362764,"ANL_NAME":"Dr.-Meißner-Park","BEZIRK":19,"SPIELPLATZ_DETAIL":"Rutschen, Sandspielen, Schaukeln, Wippen","TYP_DETAIL":"Spielplatz","SE_ANNO_CAD_DATA":null}},{"type":"Feature","id":"SPIELPLATZPUNKTOGD.2362765","geometry":{"type":"Point","coordinates":[16.35054585,48.21240789]},"geometry_name":"SHAPE","properties":{"OBJECTID":2362765,"ANL_NAME":"Schönbornpark","BEZIRK":8,"SPIELPLATZ_DETAIL":", Basketball, Beachvolleyball, Bodenspiel, Drehen, Fußball, Klettern, Reck, Rutschen, Sand-Matsch, Schaukeln, Spielhaus, Tischtennis, Wasserspiel, Wippen","TYP_DETAIL":"Ballspielkäfig, Ballspielplatz, Kleinkinderspielplatz, Spielplatz","SE_ANNO_CAD_DATA":null}},{"type":"Feature","id":"SPIELPLATZPUNKTOGD.2362766","geometry":{"type":"Point","coordinates":[16.27361543,48.19374011]},"geometry_name":"SHAPE","properties":{"OBJECTID":2362766,"ANL_NAME":"PA Hochsatzengasse","BEZIRK":14,"SPIELPLATZ_DETAIL":"Basketball, Fußball, Rutschen, Sandspielen, Schaukeln, Spielhaus, Tischtennis, Wippen","TYP_DETAIL":"Ballspielkäfig, Ballspielplatz, Kleinkinderspielplatz","SE_ANNO_CAD_DATA":null}},{"type":"Feature","id":"SPIELPLATZPUNKTOGD.2362767","geometry":{"type":"Point","coordinates":[16.26984603,48.18910942]},"geometry_name":"SHAPE","properties":{"OBJECTID":2362767,"ANL_NAME":"PA Sommerergasse","BEZIRK":13,"SPIELPLATZ_DETAIL":"Brettspiel, Sandspielen, Spielhaus, Wippen","TYP_DETAIL":"Kleinkinderspielplatz, sonstiger Spielplatz","SE_ANNO_CAD_DATA":null}},{"type":"Feature","id":"SPIELPLATZPUNKTOGD.2362768","geometry":{"type":"Point","coordinates":[16.35310685,48.25856508]},"geometry_name":"SHAPE","properties":{"OBJECTID":2362768,"ANL_NAME":"Beethovenpark","BEZIRK":19,"SPIELPLATZ_DETAIL":"Basketball, Fußball, Kletterm, Rutschen, Sandspielen, Schaukeln, Tischtennis, Wippen","TYP_DETAIL":"Ballspielkäfig, Ballspielplatz, Kleinkinderspielplatz","SE_ANNO_CAD_DATA":null}},{"type":"Feature","id":"SPIELPLATZPUNKTOGD.2362769","geometry":{"type":"Point","coordinates":[16.40544269,48.21696629]},"geometry_name":"SHAPE","properties":{"OBJECTID":2362769,"ANL_NAME":"Wolfgang-Kössner-Park","BEZIRK":2,"SPIELPLATZ_DETAIL":"Balancieren, Hängematte, Klettern, Rutschen, Sand- Matsch, Schaukeln, Streetball, Wasserspiel","TYP_DETAIL":"Ballspielplatz, Kleinkinderspielplatz, Spielplatz","SE_ANNO_CAD_DATA":null}},{"type":"Feature","id":"SPIELPLATZPUNKTOGD.2362770","geometry":{"type":"Point","coordinates":[16.33527583,48.21350841]},"geometry_name":"SHAPE","properties":{"OBJECTID":2362770,"ANL_NAME":"PA Yppenplatz","BEZIRK":16,"SPIELPLATZ_DETAIL":"Basketball, Drehen, Fußball, Klettern, Rutschen, Sandspielen, Schaukel, Themenspiel Obst/Markt, Tischtennis, Volleyball, Wasserspiel, Wippen","TYP_DETAIL":"Ballspielkäfig, Ballspielplatz, Themenspielplatz","SE_ANNO_CAD_DATA":null}},{"type":"Feature","id":"SPIELPLATZPUNKTOGD.2362771","geometry":{"type":"Point","coordinates":[16.33199226,48.21056844]},"geometry_name":"SHAPE","properties":{"OBJECTID":2362771,"ANL_NAME":"Leon-Askin-Park","BEZIRK":16,"SPIELPLATZ_DETAIL":"Brettspiel, Spieltier","TYP_DETAIL":"Kleinkinderspielplatz, sonstiger Spielplatz","SE_ANNO_CAD_DATA":null}},{"type":"Feature","id":"SPIELPLATZPUNKTOGD.2362772","geometry":{"type":"Point","coordinates":[16.35226339,48.1974228]},"geometry_name":"SHAPE","properties":{"OBJECTID":2362772,"ANL_NAME":"Esterházypark","BEZIRK":6,"SPIELPLATZ_DETAIL":"Bastketball, Fitness, Fußball, Hüpfen, Karussell, Klettern, Reck, Rutschen, Sandspielen, Schaukeln, Tischtennis, Wasserspiel","TYP_DETAIL":"Ballspielkäfig, Ballspielplatz, Generationenspielplatz, Kleinkinderspielplatz, Spielplatz","SE_ANNO_CAD_DATA":null}},{"type":"Feature","id":"SPIELPLATZPUNKTOGD.2362773","geometry":{"type":"Point","coordinates":[16.34876425,48.21691173]},"geometry_name":"SHAPE","properties":{"OBJECTID":2362773,"ANL_NAME":"Viktor-Frankl-Park","BEZIRK":9,"SPIELPLATZ_DETAIL":"Balancieren, Klettern, Sandspielen","TYP_DETAIL":"Kleinkinderspielplatz, sonstiger Spielplatz","SE_ANNO_CAD_DATA":null}},{"type":"Feature","id":"SPIELPLATZPUNKTOGD.2362774","geometry":{"type":"Point","coordinates":[16.41301607,48.27509744]},"geometry_name":"SHAPE","properties":{"OBJECTID":2362774,"ANL_NAME":"PA Wankläckergasse","BEZIRK":21,"SPIELPLATZ_DETAIL":"Federwippe, Fußball, Klettern, Schaukel","TYP_DETAIL":"Ballspielplatz, Spielplatz","SE_ANNO_CAD_DATA":null}},{"type":"Feature","id":"SPIELPLATZPUNKTOGD.2362746","geometry":{"type":"Point","coordinates":[16.38872651,48.26671838]},"geometry_name":"SHAPE","properties":{"OBJECTID":2362746,"ANL_NAME":"Franz-Polly-Park","BEZIRK":21,"SPIELPLATZ_DETAIL":"Klettern, Rutschen, Sand-Matsch, Schaukeln, Wasserspiel, Wippen","TYP_DETAIL":"Spielplatz","SE_ANNO_CAD_DATA":null}},{"type":"Feature","id":"SPIELPLATZPUNKTOGD.2362775","geometry":{"type":"Point","coordinates":[16.33524412,48.20183784]},"geometry_name":"SHAPE","properties":{"OBJECTID":2362775,"ANL_NAME":"Märzpark","BEZIRK":15,"SPIELPLATZ_DETAIL":", Balancieren, Basketball, Fußball, Klettern, Rutschen, Sandspielen, Schaukeln, Tischtennis, Volleyball, Wasserspiel, Wippen","TYP_DETAIL":"Ballspielkäfig, Ballspielplatz, Kleinkinderspielplatz, Spielplatz","SE_ANNO_CAD_DATA":null}},{"type":"Feature","id":"SPIELPLATZPUNKTOGD.2362776","geometry":{"type":"Point","coordinates":[16.38154803,48.24502996]},"geometry_name":"SHAPE","properties":{"OBJECTID":2362776,"ANL_NAME":"PA Friedrich-Engels-Platz","BEZIRK":20,"SPIELPLATZ_DETAIL":"Basketball, Fußball, Hängematte, Karussell, Klettern, Reck, Rutschen, Sand-Matsch, Schaukeln, Spielhaus, Trampolin, Wasserspiel, Wasserspielmöglichkeit, Wippen","TYP_DETAIL":"Ballspielkäfig, Themenspielplatz","SE_ANNO_CAD_DATA":null}},{"type":"Feature","id":"SPIELPLATZPUNKTOGD.2362777","geometry":{"type":"Point","coordinates":[16.32127312,48.22423124]},"geometry_name":"SHAPE","properties":{"OBJECTID":2362777,"ANL_NAME":"Clemens-Krauss-Park","BEZIRK":17,"SPIELPLATZ_DETAIL":", Karussell, Rutschen, Sandspielen, Spielhaus, WIppen","TYP_DETAIL":"Kleinkinderspielplatz","SE_ANNO_CAD_DATA":null}},{"type":"Feature","id":"SPIELPLATZPUNKTOGD.2362778","geometry":{"type":"Point","coordinates":[16.41497017,48.29141384]},"geometry_name":"SHAPE","properties":{"OBJECTID":2362778,"ANL_NAME":"PA Lüssenpromenade","BEZIRK":21,"SPIELPLATZ_DETAIL":"Balancieren, Drehen, Fitness, Fußball, Hängematte, Karussell, Klettern, Rutschen, Sandspielen, Schaukeln, Skaten, Spieltier, Streetball, Tischtennis, Wippen","TYP_DETAIL":"Ballspielplatz, Generationenspielplatz, Kleinkinderspielplatz, Skaterpark, Spielplatz","SE_ANNO_CAD_DATA":null}},{"type":"Feature","id":"SPIELPLATZPUNKTOGD.2362779","geometry":{"type":"Point","coordinates":[16.39717829,48.24325692]},"geometry_name":"SHAPE","properties":{"OBJECTID":2362779,"ANL_NAME":"Linker Donaudamm Spielplatz 4","BEZIRK":21,"SPIELPLATZ_DETAIL":"Beachvolleyball, Hängematte, Klettern, Rutschen, Sandspielen, Schaukeln, Wippen","TYP_DETAIL":"Ballspielplatz, Spielplatz","SE_ANNO_CAD_DATA":null}},{"type":"Feature","id":"SPIELPLATZPUNKTOGD.2362780","geometry":{"type":"Point","coordinates":[16.31811107,48.21452362]},"geometry_name":"SHAPE","properties":{"OBJECTID":2362780,"ANL_NAME":"PA Familienplatz","BEZIRK":16,"SPIELPLATZ_DETAIL":"Balancieren, Basketball, Fußball, Klettern, Rutschen, Sandspielen, Schaukeln","TYP_DETAIL":"Ballspielkäfig, Spielplatz","SE_ANNO_CAD_DATA":null}},{"type":"Feature","id":"SPIELPLATZPUNKTOGD.2362781","geometry":{"type":"Point","coordinates":[16.32643998,48.19258933]},"geometry_name":"SHAPE","properties":{"OBJECTID":2362781,"ANL_NAME":"PA Avedikstraße","BEZIRK":15,"SPIELPLATZ_DETAIL":"Basketball, Fußball, Klettern, Rutschen, Sandspielen, Schaukeln, Volleyball","TYP_DETAIL":"Ballspielkäfig, Spielplatz","SE_ANNO_CAD_DATA":null}},{"type":"Feature","id":"SPIELPLATZPUNKTOGD.2362782","geometry":{"type":"Point","coordinates":[16.28865196,48.13730575]},"geometry_name":"SHAPE","properties":{"OBJECTID":2362782,"ANL_NAME":"PA Fröhlichgasse","BEZIRK":23,"SPIELPLATZ_DETAIL":"Fußball","TYP_DETAIL":"Ballspielkäfig","SE_ANNO_CAD_DATA":null}},{"type":"Feature","id":"SPIELPLATZPUNKTOGD.2362783","geometry":{"type":"Point","coordinates":[16.27537799,48.19700433]},"geometry_name":"SHAPE","properties":{"OBJECTID":2362783,"ANL_NAME":"Baumgartner-Casino-Park","BEZIRK":14,"SPIELPLATZ_DETAIL":", Fußball, Karussell, Klettern, Malen, Rutschen, Sandspielen, Schaukeln, Seilbahn, Spielhaus, Streetball, Tischtennis, Trampolin, Wasserspiel, Wippen","TYP_DETAIL":"Ballspielkäfig, Kleinkinderspielplatz, Spielplatz, Wasserspielplatz","SE_ANNO_CAD_DATA":null}},{"type":"Feature","id":"SPIELPLATZPUNKTOGD.2362784","geometry":{"type":"Point","coordinates":[16.21250392,48.20797302]},"geometry_name":"SHAPE","properties":{"OBJECTID":2362784,"ANL_NAME":"PA Mühlbergstraße","BEZIRK":null,"SPIELPLATZ_DETAIL":"Tischtennis","TYP_DETAIL":"Ballspielplatz","SE_ANNO_CAD_DATA":null}},{"type":"Feature","id":"SPIELPLATZPUNKTOGD.2362785","geometry":{"type":"Point","coordinates":[16.32119705,48.21281438]},"geometry_name":"SHAPE","properties":{"OBJECTID":2362785,"ANL_NAME":"PA Wichtelgasse","BEZIRK":16,"SPIELPLATZ_DETAIL":"Klettern, Rutschen, Sandspielen, Schaukel, Schaukeln, Wippen","TYP_DETAIL":"Kleinkinderspielplatz, Spielplatz","SE_ANNO_CAD_DATA":null}},{"type":"Feature","id":"SPIELPLATZPUNKTOGD.2362786","geometry":{"type":"Point","coordinates":[16.41749767,48.20318851]},"geometry_name":"SHAPE","properties":{"OBJECTID":2362786,"ANL_NAME":"Prater - Rosenbachl","BEZIRK":2,"SPIELPLATZ_DETAIL":"Klettern, Rutschen, Schaukeln, Wippen","TYP_DETAIL":"Spielplatz","SE_ANNO_CAD_DATA":null}},{"type":"Feature","id":"SPIELPLATZPUNKTOGD.2362787","geometry":{"type":"Point","coordinates":[16.42312189,48.19994692]},"geometry_name":"SHAPE","properties":{"OBJECTID":2362787,"ANL_NAME":"Prater - Rosenbachl","BEZIRK":2,"SPIELPLATZ_DETAIL":"Disc-Golf","TYP_DETAIL":"sonstiger Spielplatz","SE_ANNO_CAD_DATA":null}},{"type":"Feature","id":"SPIELPLATZPUNKTOGD.2362788","geometry":{"type":"Point","coordinates":[16.4187259,48.20187915]},"geometry_name":"SHAPE","properties":{"OBJECTID":2362788,"ANL_NAME":"Prater - Rosenbachl","BEZIRK":2,"SPIELPLATZ_DETAIL":"Klettern","TYP_DETAIL":"Spielplatz","SE_ANNO_CAD_DATA":null}},{"type":"Feature","id":"SPIELPLATZPUNKTOGD.2362789","geometry":{"type":"Point","coordinates":[16.31785368,48.2453217]},"geometry_name":"SHAPE","properties":{"OBJECTID":2362789,"ANL_NAME":"PA Kranlweg","BEZIRK":19,"SPIELPLATZ_DETAIL":"Klettern, Rutschen","TYP_DETAIL":"Spielplatz","SE_ANNO_CAD_DATA":null}},{"type":"Feature","id":"SPIELPLATZPUNKTOGD.2362790","geometry":{"type":"Point","coordinates":[16.33257972,48.18938823]},"geometry_name":"SHAPE","properties":{"OBJECTID":2362790,"ANL_NAME":"Herklotzpark","BEZIRK":15,"SPIELPLATZ_DETAIL":"Rutschen, Sandspielen, Wippen","TYP_DETAIL":"Kleinkinderspielplatz","SE_ANNO_CAD_DATA":null}},{"type":"Feature","id":"SPIELPLATZPUNKTOGD.2362791","geometry":{"type":"Point","coordinates":[16.33078108,48.21755254]},"geometry_name":"SHAPE","properties":{"OBJECTID":2362791,"ANL_NAME":"PA Ortliebgasse","BEZIRK":17,"SPIELPLATZ_DETAIL":"Klettern, Rutschen, Sandspielen, Schaukeln, Spielhaus, Spieltiere, Wasserspiel, Wippen","TYP_DETAIL":"Kleinkinderspielplatz, Spielplatz","SE_ANNO_CAD_DATA":null}},{"type":"Feature","id":"SPIELPLATZPUNKTOGD.2362792","geometry":{"type":"Point","coordinates":[16.36858621,48.17139159]},"geometry_name":"SHAPE","properties":{"OBJECTID":2362792,"ANL_NAME":"PA Van-der-Nüll-Gasse","BEZIRK":10,"SPIELPLATZ_DETAIL":"Tischtennis","TYP_DETAIL":"Ballspielplatz","SE_ANNO_CAD_DATA":null}},{"type":"Feature","id":"SPIELPLATZPUNKTOGD.2362793","geometry":{"type":"Point","coordinates":[16.36835527,48.24014032]},"geometry_name":"SHAPE","properties":{"OBJECTID":2362793,"ANL_NAME":"PA Spielmanngasse","BEZIRK":20,"SPIELPLATZ_DETAIL":"Balancieren, Hüpfen, Karussell, Klettern, Reck, Rutschen, Sand-Matsch, Schaukeln, Themenspiel Kuniburg, Wasserspiel, Wippen","TYP_DETAIL":"Themenspielplatz","SE_ANNO_CAD_DATA":null}},{"type":"Feature","id":"SPIELPLATZPUNKTOGD.2362794","geometry":{"type":"Point","coordinates":[16.36763109,48.22301761]},"geometry_name":"SHAPE","properties":{"OBJECTID":2362794,"ANL_NAME":"Olga-Misař-Promenade","BEZIRK":9,"SPIELPLATZ_DETAIL":"Calisthenics","TYP_DETAIL":"Generationenspielplatz","SE_ANNO_CAD_DATA":null}},{"type":"Feature","id":"SPIELPLATZPUNKTOGD.2362795","geometry":{"type":"Point","coordinates":[16.36212089,48.25639343]},"geometry_name":"SHAPE","properties":{"OBJECTID":2362795,"ANL_NAME":"PA Steinbüchlweg","BEZIRK":19,"SPIELPLATZ_DETAIL":"Klettern, Rutschen, Sandspielen, Sinnesspiel, Wippen","TYP_DETAIL":"Kleinkinderspielplatz","SE_ANNO_CAD_DATA":null}},{"type":"Feature","id":"SPIELPLATZPUNKTOGD.2362796","geometry":{"type":"Point","coordinates":[16.28278043,48.20566996]},"geometry_name":"SHAPE","properties":{"OBJECTID":2362796,"ANL_NAME":"PA Antaeusgasse","BEZIRK":14,"SPIELPLATZ_DETAIL":"Klettern, Rutschen, Sandspielen, Schaukeln, Wippen","TYP_DETAIL":"Kleinkinderspielplatz","SE_ANNO_CAD_DATA":null}},{"type":"Feature","id":"SPIELPLATZPUNKTOGD.2362797","geometry":{"type":"Point","coordinates":[16.37340953,48.16998182]},"geometry_name":"SHAPE","properties":{"OBJECTID":2362797,"ANL_NAME":"PA Suchenwirtplatz","BEZIRK":10,"SPIELPLATZ_DETAIL":"Balancieren, Basketball, Fußball, Klettern, Reck, Rutschen, Sandspielen, Schaukeln, Spielhaus, Wippen","TYP_DETAIL":"Ballspielkäfig, Spielplatz","SE_ANNO_CAD_DATA":null}},{"type":"Feature","id":"SPIELPLATZPUNKTOGD.2362798","geometry":{"type":"Point","coordinates":[16.38755097,48.2193031]},"geometry_name":"SHAPE","properties":{"OBJECTID":2362798,"ANL_NAME":"GA Rabbiner-Friedmann-Platz","BEZIRK":2,"SPIELPLATZ_DETAIL":"Wippen","TYP_DETAIL":"Kleinkinderspielplatz","SE_ANNO_CAD_DATA":null}},{"type":"Feature","id":"SPIELPLATZPUNKTOGD.2362799","geometry":{"type":"Point","coordinates":[16.39392851,48.21886989]},"geometry_name":"SHAPE","properties":{"OBJECTID":2362799,"ANL_NAME":"Venediger-Au-Park","BEZIRK":2,"SPIELPLATZ_DETAIL":"Basketball, Fußball","TYP_DETAIL":"Ballspielkäfig","SE_ANNO_CAD_DATA":null}},{"type":"Feature","id":"SPIELPLATZPUNKTOGD.2362800","geometry":{"type":"Point","coordinates":[16.39623954,48.21931078]},"geometry_name":"SHAPE","properties":{"OBJECTID":2362800,"ANL_NAME":"Venediger-Au-Park","BEZIRK":2,"SPIELPLATZ_DETAIL":"Balancieren, Drehen, Karussell, Klettern, Rutschen, Sand-Matsch, Schaukeln, Seilbahn, Spieltier, Wasserspiel, Wasserspielmöglichkeit, Wippen","TYP_DETAIL":"Spielplatz","SE_ANNO_CAD_DATA":null}},{"type":"Feature","id":"SPIELPLATZPUNKTOGD.2362801","geometry":{"type":"Point","coordinates":[16.39572613,48.21862864]},"geometry_name":"SHAPE","properties":{"OBJECTID":2362801,"ANL_NAME":"Venediger-Au-Park","BEZIRK":2,"SPIELPLATZ_DETAIL":"Calistenic, Fitness, Streetball, Tischtennis","TYP_DETAIL":"Ballspielplatz, Generationenspielplatz","SE_ANNO_CAD_DATA":null}},{"type":"Feature","id":"SPIELPLATZPUNKTOGD.2362802","geometry":{"type":"Point","coordinates":[16.50700354,48.22616942]},"geometry_name":"SHAPE","properties":{"OBJECTID":2362802,"ANL_NAME":"Seepark","BEZIRK":22,"SPIELPLATZ_DETAIL":"Hängematte, Karussell, Klettern, Rutschen, Schaukeln, Spielhaus","TYP_DETAIL":"Spielplatz","SE_ANNO_CAD_DATA":null}},{"type":"Feature","id":"SPIELPLATZPUNKTOGD.2362803","geometry":{"type":"Point","coordinates":[16.50864567,48.22607403]},"geometry_name":"SHAPE","properties":{"OBJECTID":2362803,"ANL_NAME":"Seepark","BEZIRK":22,"SPIELPLATZ_DETAIL":"Klettern, Skaten","TYP_DETAIL":"Skaterpark, Spielplatz","SE_ANNO_CAD_DATA":null}},{"type":"Feature","id":"SPIELPLATZPUNKTOGD.2362804","geometry":{"type":"Point","coordinates":[16.50540132,48.2267577]},"geometry_name":"SHAPE","properties":{"OBJECTID":2362804,"ANL_NAME":"Seepark","BEZIRK":22,"SPIELPLATZ_DETAIL":"Balancieren, Boccia, Klettern, Tischtennis, Trampolin, Wippen","TYP_DETAIL":"Ballspielplatz, Spielplatz","SE_ANNO_CAD_DATA":null}},{"type":"Feature","id":"SPIELPLATZPUNKTOGD.2362806","geometry":{"type":"Point","coordinates":[16.37305717,48.22432959]},"geometry_name":"SHAPE","properties":{"OBJECTID":2362806,"ANL_NAME":"Irma-Schwager-Park","BEZIRK":2,"SPIELPLATZ_DETAIL":"Schach","TYP_DETAIL":"sonstiger Spielplatz","SE_ANNO_CAD_DATA":null}},{"type":"Feature","id":"SPIELPLATZPUNKTOGD.2362807","geometry":{"type":"Point","coordinates":[16.30702846,48.20118555]},"geometry_name":"SHAPE","properties":{"OBJECTID":2362807,"ANL_NAME":"Ordeltpark","BEZIRK":14,"SPIELPLATZ_DETAIL":"Basketball, Fitness, Fußball, Karussell, Klettern, Malen, Reck, Rutschen, Sandspielen, Schaukeln, Wippen","TYP_DETAIL":"Ballspielkäfig, Generationenspielplatz, Spielplatz, sonstiger Spielplatz","SE_ANNO_CAD_DATA":null}},{"type":"Feature","id":"SPIELPLATZPUNKTOGD.2362808","geometry":{"type":"Point","coordinates":[16.3888997,48.14530612]},"geometry_name":"SHAPE","properties":{"OBJECTID":2362808,"ANL_NAME":"PA Ada-Christen-Gasse","BEZIRK":10,"SPIELPLATZ_DETAIL":"Fitness","TYP_DETAIL":"Generationenspielplatz","SE_ANNO_CAD_DATA":null}},{"type":"Feature","id":"SPIELPLATZPUNKTOGD.2362809","geometry":{"type":"Point","coordinates":[16.47590121,48.15905008]},"geometry_name":"SHAPE","properties":{"OBJECTID":2362809,"ANL_NAME":"PA Münnichplatz","BEZIRK":11,"SPIELPLATZ_DETAIL":"Fußball, Klettern, Rutschen, Sandspielen, Schaukeln, Wippen","TYP_DETAIL":"Ballspielplatz, Kleinkinderspielplatz","SE_ANNO_CAD_DATA":null}},{"type":"Feature","id":"SPIELPLATZPUNKTOGD.2362810","geometry":{"type":"Point","coordinates":[16.29867301,48.1967004]},"geometry_name":"SHAPE","properties":{"OBJECTID":2362810,"ANL_NAME":"GA Rottstraße","BEZIRK":14,"SPIELPLATZ_DETAIL":"Klettern, Rutschen, Sandspielen, Schaukeln, Wippen","TYP_DETAIL":"Kleinkinderspielplatz","SE_ANNO_CAD_DATA":null}},{"type":"Feature","id":"SPIELPLATZPUNKTOGD.2362811","geometry":{"type":"Point","coordinates":[16.3364839,48.19576457]},"geometry_name":"SHAPE","properties":{"OBJECTID":2362811,"ANL_NAME":"Helga-Pollak-Kinsky-Park","BEZIRK":15,"SPIELPLATZ_DETAIL":"Spieltier, Wippen","TYP_DETAIL":"Spielplatz","SE_ANNO_CAD_DATA":null}},{"type":"Feature","id":"SPIELPLATZPUNKTOGD.2362812","geometry":{"type":"Point","coordinates":[16.46588803,48.23306328]},"geometry_name":"SHAPE","properties":{"OBJECTID":2362812,"ANL_NAME":"PA Am Krautgarten","BEZIRK":22,"SPIELPLATZ_DETAIL":"Hängematte, Klettern, Rutschen, Schaukeln, Wippen","TYP_DETAIL":"Spielplatz","SE_ANNO_CAD_DATA":null}},{"type":"Feature","id":"SPIELPLATZPUNKTOGD.2362813","geometry":{"type":"Point","coordinates":[16.37518628,48.1519641]},"geometry_name":"SHAPE","properties":{"OBJECTID":2362813,"ANL_NAME":"PA Pichelmayergasse","BEZIRK":10,"SPIELPLATZ_DETAIL":"Klettern, Rutschen, Schaukeln","TYP_DETAIL":"Spielplatz","SE_ANNO_CAD_DATA":null}},{"type":"Feature","id":"SPIELPLATZPUNKTOGD.2362814","geometry":{"type":"Point","coordinates":[16.36772192,48.23547561]},"geometry_name":"SHAPE","properties":{"OBJECTID":2362814,"ANL_NAME":"PA Leipziger Platz","BEZIRK":20,"SPIELPLATZ_DETAIL":"Basketball, Fußball, Tischtennistisch","TYP_DETAIL":"Ballspielkäfig, Ballspielplatz","SE_ANNO_CAD_DATA":null}},{"type":"Feature","id":"SPIELPLATZPUNKTOGD.2362815","geometry":{"type":"Point","coordinates":[16.30623819,48.16526078]},"geometry_name":"SHAPE","properties":{"OBJECTID":2362815,"ANL_NAME":"Franz-Hübel-Park","BEZIRK":12,"SPIELPLATZ_DETAIL":"Balancieren, Drehen, Fußball, Karussell, Klettern, Reck, Rutschen, Sandspiel, Schaukeln, Wippen","TYP_DETAIL":"Ballspielplatz, Spielplatz","SE_ANNO_CAD_DATA":null}},{"type":"Feature","id":"SPIELPLATZPUNKTOGD.2362816","geometry":{"type":"Point","coordinates":[16.4235521,48.25897733]},"geometry_name":"SHAPE","properties":{"OBJECTID":2362816,"ANL_NAME":"Hans-Hirsch-Park","BEZIRK":21,"SPIELPLATZ_DETAIL":"Klettern, Rutschen, Sandspielen, Schaukeln, Wasserspielmöglichkeit, Wippen","TYP_DETAIL":"Kleinkinderspielplatz, Spielplatz","SE_ANNO_CAD_DATA":null}},{"type":"Feature","id":"SPIELPLATZPUNKTOGD.2362817","geometry":{"type":"Point","coordinates":[16.33465929,48.2188768]},"geometry_name":"SHAPE","properties":{"OBJECTID":2362817,"ANL_NAME":"Frederic-Morton-Park","BEZIRK":17,"SPIELPLATZ_DETAIL":"Balancieren, Klettern, Malen, Rutschen, Sandspielen, Schaukeln, Wippen","TYP_DETAIL":"Kleinkinderspielplatz, Spielplatz","SE_ANNO_CAD_DATA":null}},{"type":"Feature","id":"SPIELPLATZPUNKTOGD.2362818","geometry":{"type":"Point","coordinates":[16.38587107,48.22510958]},"geometry_name":"SHAPE","properties":{"OBJECTID":2362818,"ANL_NAME":"Else-Feldmann-Park","BEZIRK":2,"SPIELPLATZ_DETAIL":"Fitness, Klettern, Sandspielen, Schaukeln, Wippen","TYP_DETAIL":"Generationenspielplatz, Kleinkinderspielplatz","SE_ANNO_CAD_DATA":null}},{"type":"Feature","id":"SPIELPLATZPUNKTOGD.2362819","geometry":{"type":"Point","coordinates":[16.30496861,48.1520387]},"geometry_name":"SHAPE","properties":{"OBJECTID":2362819,"ANL_NAME":"PA Trepetschniggasse","BEZIRK":23,"SPIELPLATZ_DETAIL":"Fitness, Karussell, Rutschen, Sandspielen, Schaukeln, Seilbahn, Wippen","TYP_DETAIL":"Generationenspielplatz, Kleinkinderspielplatz, Spielplatz","SE_ANNO_CAD_DATA":null}},{"type":"Feature","id":"SPIELPLATZPUNKTOGD.2362820","geometry":{"type":"Point","coordinates":[16.28700453,48.15213079]},"geometry_name":"SHAPE","properties":{"OBJECTID":2362820,"ANL_NAME":"PA Pölleritzergasse","BEZIRK":23,"SPIELPLATZ_DETAIL":"Klettern, Rutschen, Sandspielen, Schaukeln, Wippen","TYP_DETAIL":"Kleinkinderspielplatz","SE_ANNO_CAD_DATA":null}},{"type":"Feature","id":"SPIELPLATZPUNKTOGD.2362821","geometry":{"type":"Point","coordinates":[16.39785948,48.20354378]},"geometry_name":"SHAPE","properties":{"OBJECTID":2362821,"ANL_NAME":"Hundertwasser-Promenade","BEZIRK":3,"SPIELPLATZ_DETAIL":"Calisthenics","TYP_DETAIL":"Generationenspielplatz","SE_ANNO_CAD_DATA":null}},{"type":"Feature","id":"SPIELPLATZPUNKTOGD.2362822","geometry":{"type":"Point","coordinates":[16.43365379,48.25449222]},"geometry_name":"SHAPE","properties":{"OBJECTID":2362822,"ANL_NAME":"Gusti-Wolf-Park","BEZIRK":22,"SPIELPLATZ_DETAIL":"Basketball, Fitness, Klettern, Rutschen, Sandspielen, Schaukeln, Wippen","TYP_DETAIL":"Ballspielplatz, Spielplatz","SE_ANNO_CAD_DATA":null}},{"type":"Feature","id":"SPIELPLATZPUNKTOGD.2362823","geometry":{"type":"Point","coordinates":[16.40350975,48.16428969]},"geometry_name":"SHAPE","properties":{"OBJECTID":2362823,"ANL_NAME":"PA Löwygrube","BEZIRK":10,"SPIELPLATZ_DETAIL":"Fußball, Klettern, Rutschen, Schaukeln, Seilbahn, Spielhaus, Wippen","TYP_DETAIL":"Ballspielplatz, Kleinkinderspielplatz, Spielplatz","SE_ANNO_CAD_DATA":null}},{"type":"Feature","id":"SPIELPLATZPUNKTOGD.2362824","geometry":{"type":"Point","coordinates":[16.40622727,48.20408368]},"geometry_name":"SHAPE","properties":{"OBJECTID":2362824,"ANL_NAME":"Prater - Jesuitenwiese","BEZIRK":2,"SPIELPLATZ_DETAIL":"Balancieren, Drehen, Klettern, Rodelhügel, Rutschen, Sand-Matsch, Sandspielen, Schaukeln, Seilbahn, Spieltier, Wasserspiel, Wasserspielmöglichkeit","TYP_DETAIL":"Spielplatz, sonstiger Spielplatz","SE_ANNO_CAD_DATA":null}},{"type":"Feature","id":"SPIELPLATZPUNKTOGD.2362825","geometry":{"type":"Point","coordinates":[16.40604756,48.20610435]},"geometry_name":"SHAPE","properties":{"OBJECTID":2362825,"ANL_NAME":"Prater - Jesuitenwiese","BEZIRK":2,"SPIELPLATZ_DETAIL":"Klettern, Rutschen, Sand-Matsch, Sandspielen, Schaukeln, Tischtennis","TYP_DETAIL":"Ballspielplatz, Kleinkinderspielplatz, Spielplatz","SE_ANNO_CAD_DATA":null}},{"type":"Feature","id":"SPIELPLATZPUNKTOGD.2362826","geometry":{"type":"Point","coordinates":[16.40234093,48.20576203]},"geometry_name":"SHAPE","properties":{"OBJECTID":2362826,"ANL_NAME":"Prater - Jesuitenwiese","BEZIRK":2,"SPIELPLATZ_DETAIL":"Beachvolleyball, Boccia, Fitness","TYP_DETAIL":"Ballspielplatz, Generationenspielplatz","SE_ANNO_CAD_DATA":null}},{"type":"Feature","id":"SPIELPLATZPUNKTOGD.2362827","geometry":{"type":"Point","coordinates":[16.37376031,48.23432424]},"geometry_name":"SHAPE","properties":{"OBJECTID":2362827,"ANL_NAME":"Jakob-Winter-Park","BEZIRK":20,"SPIELPLATZ_DETAIL":"Basketball, Klettern, Reck, Rutschen, Schaukeln, Volleyball, Wippen","TYP_DETAIL":"Ballspielplatz, Kleinkinderspielplatz, Spielplatz","SE_ANNO_CAD_DATA":null}},{"type":"Feature","id":"SPIELPLATZPUNKTOGD.2362828","geometry":{"type":"Point","coordinates":[16.3918894,48.19165426]},"geometry_name":"SHAPE","properties":{"OBJECTID":2362828,"ANL_NAME":"Leon-Zelman-Park","BEZIRK":3,"SPIELPLATZ_DETAIL":", Fitnessgerät, Schaukeln, Slacklining, Tischtennis","TYP_DETAIL":"Ballspielplatz, Generationenspielplatz, Spielplatz, sonstiger Spielplatz","SE_ANNO_CAD_DATA":null}},{"type":"Feature","id":"SPIELPLATZPUNKTOGD.2362829","geometry":{"type":"Point","coordinates":[16.39304459,48.19091683]},"geometry_name":"SHAPE","properties":{"OBJECTID":2362829,"ANL_NAME":"Leon-Zelman-Park","BEZIRK":3,"SPIELPLATZ_DETAIL":"Klettern","TYP_DETAIL":"Spielplatz","SE_ANNO_CAD_DATA":null}},{"type":"Feature","id":"SPIELPLATZPUNKTOGD.2362830","geometry":{"type":"Point","coordinates":[16.39354061,48.19026696]},"geometry_name":"SHAPE","properties":{"OBJECTID":2362830,"ANL_NAME":"Leon-Zelman-Park","BEZIRK":3,"SPIELPLATZ_DETAIL":"Reck","TYP_DETAIL":"Generationenspielplatz","SE_ANNO_CAD_DATA":null}},{"type":"Feature","id":"SPIELPLATZPUNKTOGD.2362831","geometry":{"type":"Point","coordinates":[16.39235857,48.19874005]},"geometry_name":"SHAPE","properties":{"OBJECTID":2362831,"ANL_NAME":"Arenbergpark","BEZIRK":3,"SPIELPLATZ_DETAIL":"Basketball, Drehen, Fußball, Hüpfen, Klettern, Rutschen, Sandspielen, Schaukeln, Spielhaus, Wasserspiel","TYP_DETAIL":"Ballspielplatz, Kleinkinderspielplatz, Spielplatz","SE_ANNO_CAD_DATA":null}},{"type":"Feature","id":"SPIELPLATZPUNKTOGD.2362832","geometry":{"type":"Point","coordinates":[16.39153896,48.19789429]},"geometry_name":"SHAPE","properties":{"OBJECTID":2362832,"ANL_NAME":"Arenbergpark","BEZIRK":3,"SPIELPLATZ_DETAIL":"Tischtennis","TYP_DETAIL":"Ballspielplatz","SE_ANNO_CAD_DATA":null}},{"type":"Feature","id":"SPIELPLATZPUNKTOGD.2362833","geometry":{"type":"Point","coordinates":[16.43705067,48.24960875]},"geometry_name":"SHAPE","properties":{"OBJECTID":2362833,"ANL_NAME":"Claudia-Heill-Park","BEZIRK":22,"SPIELPLATZ_DETAIL":"Fußball","TYP_DETAIL":"Ballspielplatz","SE_ANNO_CAD_DATA":null}},{"type":"Feature","id":"SPIELPLATZPUNKTOGD.2362834","geometry":{"type":"Point","coordinates":[16.43628241,48.24858931]},"geometry_name":"SHAPE","properties":{"OBJECTID":2362834,"ANL_NAME":"Claudia-Heill-Park","BEZIRK":22,"SPIELPLATZ_DETAIL":"Fußball","TYP_DETAIL":"Ballspielplatz","SE_ANNO_CAD_DATA":null}},{"type":"Feature","id":"SPIELPLATZPUNKTOGD.2362805","geometry":{"type":"Point","coordinates":[16.5057546,48.22761139]},"geometry_name":"SHAPE","properties":{"OBJECTID":2362805,"ANL_NAME":"Seepark","BEZIRK":22,"SPIELPLATZ_DETAIL":"Klettern","TYP_DETAIL":"sonstiger Spielplatz","SE_ANNO_CAD_DATA":null}},{"type":"Feature","id":"SPIELPLATZPUNKTOGD.2362835","geometry":{"type":"Point","coordinates":[16.47443924,48.22271519]},"geometry_name":"SHAPE","properties":{"OBJECTID":2362835,"ANL_NAME":"GA Wonkaplatz","BEZIRK":22,"SPIELPLATZ_DETAIL":"Boccia, Drehen, Karussell, Wasserspiel","TYP_DETAIL":"Ballspielplatz, Spielplatz","SE_ANNO_CAD_DATA":null}},{"type":"Feature","id":"SPIELPLATZPUNKTOGD.2362836","geometry":{"type":"Point","coordinates":[16.38277135,48.27784884]},"geometry_name":"SHAPE","properties":{"OBJECTID":2362836,"ANL_NAME":"Vilma-Webenau-Park","BEZIRK":21,"SPIELPLATZ_DETAIL":"Balancieren, Drehen, Fitness, Fußball, Klettern, Rutschen, Sand-Matsch, Schaukeln, Seilbahn, Wasserspiel, Wippen","TYP_DETAIL":"Ballspielplatz, Generationenspielplatz, Spielplatz","SE_ANNO_CAD_DATA":null}},{"type":"Feature","id":"SPIELPLATZPUNKTOGD.2362837","geometry":{"type":"Point","coordinates":[16.38599017,48.21711124]},"geometry_name":"SHAPE","properties":{"OBJECTID":2362837,"ANL_NAME":"Rosa-Jochmann-Park","BEZIRK":2,"SPIELPLATZ_DETAIL":"Klettern, Rutschen, Sandspielen, Schaukeln","TYP_DETAIL":"Kleinkinderspielplatz, Spielplatz","SE_ANNO_CAD_DATA":null}},{"type":"Feature","id":"SPIELPLATZPUNKTOGD.2362838","geometry":{"type":"Point","coordinates":[16.34330665,48.18764568]},"geometry_name":"SHAPE","properties":{"OBJECTID":2362838,"ANL_NAME":"Bruno-Kreisky-Park","BEZIRK":5,"SPIELPLATZ_DETAIL":"Calisthenics","TYP_DETAIL":"Generationenspielplatz","SE_ANNO_CAD_DATA":null}},{"type":"Feature","id":"SPIELPLATZPUNKTOGD.2362839","geometry":{"type":"Point","coordinates":[16.34435553,48.18815685]},"geometry_name":"SHAPE","properties":{"OBJECTID":2362839,"ANL_NAME":"Bruno-Kreisky-Park","BEZIRK":5,"SPIELPLATZ_DETAIL":"Drehen, Klettern, Rutschen, Sandspielen, Schaukeln, Wippen","TYP_DETAIL":"Kleinkinderspielplatz, Spielplatz","SE_ANNO_CAD_DATA":null}},{"type":"Feature","id":"SPIELPLATZPUNKTOGD.2362840","geometry":{"type":"Point","coordinates":[16.3470139,48.19996208]},"geometry_name":"SHAPE","properties":{"OBJECTID":2362840,"ANL_NAME":"GA Jenny-Steiner-Weg","BEZIRK":7,"SPIELPLATZ_DETAIL":"Klettern","TYP_DETAIL":"Spielplatz","SE_ANNO_CAD_DATA":null}},{"type":"Feature","id":"SPIELPLATZPUNKTOGD.2362841","geometry":{"type":"Point","coordinates":[16.34232101,48.22090748]},"geometry_name":"SHAPE","properties":{"OBJECTID":2362841,"ANL_NAME":"Anton-Baumann-Park","BEZIRK":18,"SPIELPLATZ_DETAIL":"Balancieren, Basketball, Fußball, Klettern, Rutschen, Sandspielen, Schaukeln, Wippen","TYP_DETAIL":"Ballspielkäfig, Kleinkinderspielplatz","SE_ANNO_CAD_DATA":null}},{"type":"Feature","id":"SPIELPLATZPUNKTOGD.2362842","geometry":{"type":"Point","coordinates":[16.39920471,48.19423355]},"geometry_name":"SHAPE","properties":{"OBJECTID":2362842,"ANL_NAME":"Joe-Zawinul-Park","BEZIRK":3,"SPIELPLATZ_DETAIL":", Fußball, Klettern, Rutschen, Sandspielen, Schaukeln, Streetball, Wippen","TYP_DETAIL":"Ballspielkäfig, Kleinkinderspielplatz, Spielplatz","SE_ANNO_CAD_DATA":null}},{"type":"Feature","id":"SPIELPLATZPUNKTOGD.2362843","geometry":{"type":"Point","coordinates":[16.33906655,48.19413587]},"geometry_name":"SHAPE","properties":{"OBJECTID":2362843,"ANL_NAME":"GA Mariahilfer Gürtel","BEZIRK":15,"SPIELPLATZ_DETAIL":"Fitness","TYP_DETAIL":"Generationenspielplatz","SE_ANNO_CAD_DATA":null}},{"type":"Feature","id":"SPIELPLATZPUNKTOGD.2362844","geometry":{"type":"Point","coordinates":[16.46548647,48.15446231]},"geometry_name":"SHAPE","properties":{"OBJECTID":2362844,"ANL_NAME":"GA Wilhelm-Svetelsky-Platz","BEZIRK":11,"SPIELPLATZ_DETAIL":"Drehen, Spieltier","TYP_DETAIL":"Spielplatz","SE_ANNO_CAD_DATA":null}},{"type":"Feature","id":"SPIELPLATZPUNKTOGD.2362845","geometry":{"type":"Point","coordinates":[16.41298019,48.29715862]},"geometry_name":"SHAPE","properties":{"OBJECTID":2362845,"ANL_NAME":"PA Edi-Finger-Straße","BEZIRK":21,"SPIELPLATZ_DETAIL":"Klettern, Sandspielen, Schaukeln","TYP_DETAIL":"Spielplatz","SE_ANNO_CAD_DATA":null}},{"type":"Feature","id":"SPIELPLATZPUNKTOGD.2362846","geometry":{"type":"Point","coordinates":[16.3440144,48.19379421]},"geometry_name":"SHAPE","properties":{"OBJECTID":2362846,"ANL_NAME":"Vinzenz-von-Paul-Park","BEZIRK":6,"SPIELPLATZ_DETAIL":", Fitnessgerät, Sandspielen","TYP_DETAIL":"Generationenspielplatz, Kleinkinderspielplatz","SE_ANNO_CAD_DATA":null}},{"type":"Feature","id":"SPIELPLATZPUNKTOGD.2362847","geometry":{"type":"Point","coordinates":[16.37915748,48.15249128]},"geometry_name":"SHAPE","properties":{"OBJECTID":2362847,"ANL_NAME":"PA Rädda-Barnen-Platz","BEZIRK":10,"SPIELPLATZ_DETAIL":"Klettern, Rutschen, Sandkasten, Schaukeln, Wippen","TYP_DETAIL":"Kleinkinderspielplatz","SE_ANNO_CAD_DATA":null}},{"type":"Feature","id":"SPIELPLATZPUNKTOGD.2362848","geometry":{"type":"Point","coordinates":[16.31912897,48.19399725]},"geometry_name":"SHAPE","properties":{"OBJECTID":2362848,"ANL_NAME":"Regine-Landeis-Park","BEZIRK":15,"SPIELPLATZ_DETAIL":"Basketball, Fitness, Fußball, Hängematte, Klettern, Rutschen, Sandspielen, Tischtennis, Wasserspiel, Wippen","TYP_DETAIL":"Ballspielkäfig, Ballspielplatz, Generationenspielplatz, Spielplatz","SE_ANNO_CAD_DATA":null}},{"type":"Feature","id":"SPIELPLATZPUNKTOGD.2362849","geometry":{"type":"Point","coordinates":[16.4080042,48.13494651]},"geometry_name":"SHAPE","properties":{"OBJECTID":2362849,"ANL_NAME":"Piratenspielplatz","BEZIRK":10,"SPIELPLATZ_DETAIL":"Balancieren, Hängematte, Karussell, Rutschen, Schaukeln, Spielhaus, Themenspielplatz, Wasserspiel, Wippen","TYP_DETAIL":"Wasserspielplatz","SE_ANNO_CAD_DATA":null}},{"type":"Feature","id":"SPIELPLATZPUNKTOGD.2362850","geometry":{"type":"Point","coordinates":[16.34872172,48.21771559]},"geometry_name":"SHAPE","properties":{"OBJECTID":2362850,"ANL_NAME":"PA AKH","BEZIRK":9,"SPIELPLATZ_DETAIL":"Fitness, Klettern, Rutschen, Sandspielen, Schaukeln","TYP_DETAIL":"Kleinkinderspielplatz","SE_ANNO_CAD_DATA":null}},{"type":"Feature","id":"SPIELPLATZPUNKTOGD.2362851","geometry":{"type":"Point","coordinates":[16.33837503,48.2448323]},"geometry_name":"SHAPE","properties":{"OBJECTID":2362851,"ANL_NAME":"Olympiapark","BEZIRK":19,"SPIELPLATZ_DETAIL":"Basketball, Fußball, Klettern, Reck, Rutschen, Sandkiste, Sandspiel, Schaukeln, Tischtennis, Wasserspiel, Wippen","TYP_DETAIL":"Ballspielkäfig, Ballspielplatz, Kleinkinderspielplatz, Spielplatz","SE_ANNO_CAD_DATA":null}},{"type":"Feature","id":"SPIELPLATZPUNKTOGD.2362852","geometry":{"type":"Point","coordinates":[16.39648111,48.22593]},"geometry_name":"SHAPE","properties":{"OBJECTID":2362852,"ANL_NAME":"Rudolf-Bednar-Park","BEZIRK":2,"SPIELPLATZ_DETAIL":"Balancieren, Basketball, Karussell, Klettern, Reck, Rutschen, Schaukeln, Skaten, Tischtennis, Volleyball, Wippen","TYP_DETAIL":"Ballspielplatz, Kleinkinderspielplatz, Skaterpark, Spielplatz","SE_ANNO_CAD_DATA":null}},{"type":"Feature","id":"SPIELPLATZPUNKTOGD.2362853","geometry":{"type":"Point","coordinates":[16.397663,48.22661992]},"geometry_name":"SHAPE","properties":{"OBJECTID":2362853,"ANL_NAME":"Rudolf-Bednar-Park","BEZIRK":2,"SPIELPLATZ_DETAIL":"Balancieren, Fitness, Karussell, Klettern, Rutschen, Sand-Matsch, Schaukeln, Spielhaus, Wasserspiel, Wippen","TYP_DETAIL":"Generationenspielplatz, Kleinkinderspielplatz, Spielplatz","SE_ANNO_CAD_DATA":null}},{"type":"Feature","id":"SPIELPLATZPUNKTOGD.2362854","geometry":{"type":"Point","coordinates":[16.37820227,48.21436073]},"geometry_name":"SHAPE","properties":{"OBJECTID":2362854,"ANL_NAME":"Manes-Sperber-Park","BEZIRK":2,"SPIELPLATZ_DETAIL":"Balancieren, Basketball, Fußball, Karussell, Sandspielen, Schaukeln, Volleyball","TYP_DETAIL":"Ballspielkäfig, Kleinkinderspielplatz","SE_ANNO_CAD_DATA":null}},{"type":"Feature","id":"SPIELPLATZPUNKTOGD.2362855","geometry":{"type":"Point","coordinates":[16.41512382,48.25289397]},"geometry_name":"SHAPE","properties":{"OBJECTID":2362855,"ANL_NAME":"PA Donaufelder Straße","BEZIRK":21,"SPIELPLATZ_DETAIL":"Hängematte, Karussell, Klettern, Rutschen, Sandspielen, Schaukeln, Skaten, Streetball, Wippen","TYP_DETAIL":"Ballspielplatz, Kleinkinderspielplatz, Skaterpark, Spielplatz","SE_ANNO_CAD_DATA":null}},{"type":"Feature","id":"SPIELPLATZPUNKTOGD.2362856","geometry":{"type":"Point","coordinates":[16.36789716,48.18630994]},"geometry_name":"SHAPE","properties":{"OBJECTID":2362856,"ANL_NAME":"Alois-Drasche-Park","BEZIRK":4,"SPIELPLATZ_DETAIL":", Balancieren, Basketball, Fitnessgeräte, Fußball, Hängematte, Klettern, Malwand, Reck, Rutschen, Sandspielen, Schaukeln, Tischtennis, Wippen","TYP_DETAIL":"Ballspielkäfig, Ballspielplatz, Generationenspielplatz, Kleinkinderspielplatz, Spielplatz","SE_ANNO_CAD_DATA":null}},{"type":"Feature","id":"SPIELPLATZPUNKTOGD.2362857","geometry":{"type":"Point","coordinates":[16.38798408,48.21367329]},"geometry_name":"SHAPE","properties":{"OBJECTID":2362857,"ANL_NAME":"Henriette-Fahrbach-Promenade","BEZIRK":2,"SPIELPLATZ_DETAIL":"Basketball, Fußball, Klettern, Rutschen, Sandspielen, Schaukeln, Volleyball, Wippen","TYP_DETAIL":"Ballspielplatz, Kleinkinderspielplatz","SE_ANNO_CAD_DATA":null}},{"type":"Feature","id":"SPIELPLATZPUNKTOGD.2362858","geometry":{"type":"Point","coordinates":[16.36919825,48.22630456]},"geometry_name":"SHAPE","properties":{"OBJECTID":2362858,"ANL_NAME":"PA Gaußplatz","BEZIRK":20,"SPIELPLATZ_DETAIL":"Basketball, Rutschen, Sand-Matsch, Schaukeln, Wasserspiel, Wippen","TYP_DETAIL":"Ballspielkäfig, Kleinkinderspielplatz, Spielplatz","SE_ANNO_CAD_DATA":null}},{"type":"Feature","id":"SPIELPLATZPUNKTOGD.2362859","geometry":{"type":"Point","coordinates":[16.3948604,48.25225519]},"geometry_name":"SHAPE","properties":{"OBJECTID":2362859,"ANL_NAME":"Wasserpark","BEZIRK":21,"SPIELPLATZ_DETAIL":"Balancieren, Basketball, Drehen, Fußball, Hängematte, Hüpfen, Karussell, Klangspiel, Klettern, Rodelhügel, Rutschen, Sandspielen, Schaukeln, Spieltier, Tischtennis, Trampolin, Wippen","TYP_DETAIL":"Ballspielkäfig, Ballspielplatz, Spielplatz, sonstiger Spielplatz","SE_ANNO_CAD_DATA":null}},{"type":"Feature","id":"SPIELPLATZPUNKTOGD.2362860","geometry":{"type":"Point","coordinates":[16.39309404,48.25127763]},"geometry_name":"SHAPE","properties":{"OBJECTID":2362860,"ANL_NAME":"Wasserpark","BEZIRK":21,"SPIELPLATZ_DETAIL":"Fitness","TYP_DETAIL":"Generationenspielplatz","SE_ANNO_CAD_DATA":null}},{"type":"Feature","id":"SPIELPLATZPUNKTOGD.2362861","geometry":{"type":"Point","coordinates":[16.32939944,48.23460089]},"geometry_name":"SHAPE","properties":{"OBJECTID":2362861,"ANL_NAME":"Türkenschanzpark","BEZIRK":18,"SPIELPLATZ_DETAIL":"Basketball","TYP_DETAIL":"Ballspielkäfig","SE_ANNO_CAD_DATA":null}},{"type":"Feature","id":"SPIELPLATZPUNKTOGD.2362862","geometry":{"type":"Point","coordinates":[16.33125468,48.23590682]},"geometry_name":"SHAPE","properties":{"OBJECTID":2362862,"ANL_NAME":"Türkenschanzpark","BEZIRK":18,"SPIELPLATZ_DETAIL":"Tischtennis","TYP_DETAIL":"Ballspielplatz","SE_ANNO_CAD_DATA":null}},{"type":"Feature","id":"SPIELPLATZPUNKTOGD.2362863","geometry":{"type":"Point","coordinates":[16.33286065,48.23576712]},"geometry_name":"SHAPE","properties":{"OBJECTID":2362863,"ANL_NAME":"Türkenschanzpark","BEZIRK":18,"SPIELPLATZ_DETAIL":"Sandspielen, Spielhaus, Tischtennis","TYP_DETAIL":"Ballspielplatz, Kleinkinderspielplatz","SE_ANNO_CAD_DATA":null}},{"type":"Feature","id":"SPIELPLATZPUNKTOGD.2362864","geometry":{"type":"Point","coordinates":[16.33687061,48.23440705]},